{"type":"FeatureCollection","features":[{"type":"Feature","geometry":{"type":"Point","coordinates":[116.3914,39.905]},"properties":{"areaid":101010100,"NAMEEN":"beijing","NAMECN":"北京","DISTRICTEN":"beijing","DISTRICTCN":"北京","PROVEN":"beijing","PROVCN":"北京","NATIONEN":"china","NATIONCN":"中国","level":1},"id":"1"},{"type":"Feature","geometry":{"type":"Point","coordinates":[116.2921,39.9581]},"properties":{"areaid":101010200,"NAMEEN":"haidian","NAMECN":"海淀","DISTRICTEN":"haidian","DISTRICTCN":"海淀","PROVEN":"beijing","PROVCN":"北京","NATIONEN":"china","NATIONCN":"中国","level":3},"id":"2"},{"type":"Feature","geometry":{"type":"Point","coordinates":[116.437,39.9204]},"properties":{"areaid":101010300,"NAMEEN":"chaoyang","NAMECN":"朝阳","DISTRICTEN":"chaoyang","DISTRICTCN":"朝阳","PROVEN":"beijing","PROVCN":"北京","NATIONEN":"china","NATIONCN":"中国","level":3},"id":"3"},{"type":"Feature","geometry":{"type":"Point","coordinates":[116.6484,40.1292]},"properties":{"areaid":101010400,"NAMEEN":"shunyi","NAMECN":"顺义","DISTRICTEN":"shunyi","DISTRICTCN":"顺义","PROVEN":"beijing","PROVCN":"北京","NATIONEN":"china","NATIONCN":"中国","level":3},"id":"4"},{"type":"Feature","geometry":{"type":"Point","coordinates":[116.6259,40.315]},"properties":{"areaid":101010500,"NAMEEN":"huairou","NAMECN":"怀柔","DISTRICTEN":"huairou","DISTRICTCN":"怀柔","PROVEN":"beijing","PROVCN":"北京","NATIONEN":"china","NATIONCN":"中国","level":3},"id":"5"},{"type":"Feature","geometry":{"type":"Point","coordinates":[116.651,39.9086]},"properties":{"areaid":101010600,"NAMEEN":"tongzhou","NAMECN":"通州","DISTRICTEN":"tongzhou","DISTRICTCN":"通州","PROVEN":"beijing","PROVCN":"北京","NATIONEN":"china","NATIONCN":"中国","level":3},"id":"6"},{"type":"Feature","geometry":{"type":"Point","coordinates":[116.2255,40.2197]},"properties":{"areaid":101010700,"NAMEEN":"changping","NAMECN":"昌平","DISTRICTEN":"changping","DISTRICTCN":"昌平","PROVEN":"beijing","PROVCN":"北京","NATIONEN":"china","NATIONCN":"中国","level":3},"id":"7"},{"type":"Feature","geometry":{"type":"Point","coordinates":[115.9689,40.4556]},"properties":{"areaid":101010800,"NAMEEN":"yanqing","NAMECN":"延庆","DISTRICTEN":"yanqing","DISTRICTCN":"延庆","PROVEN":"beijing","PROVCN":"北京","NATIONEN":"china","NATIONCN":"中国","level":3},"id":"8"},{"type":"Feature","geometry":{"type":"Point","coordinates":[116.2803,39.8572]},"properties":{"areaid":101010900,"NAMEEN":"fengtai","NAMECN":"丰台","DISTRICTEN":"fengtai","DISTRICTCN":"丰台","PROVEN":"beijing","PROVCN":"北京","NATIONEN":"china","NATIONCN":"中国","level":3},"id":"9"},{"type":"Feature","geometry":{"type":"Point","coordinates":[116.2169,39.9045]},"properties":{"areaid":101011000,"NAMEEN":"shijingshan","NAMECN":"石景山","DISTRICTEN":"shijingshan","DISTRICTCN":"石景山","PROVEN":"beijing","PROVCN":"北京","NATIONEN":"china","NATIONCN":"中国","level":3},"id":"10"},{"type":"Feature","geometry":{"type":"Point","coordinates":[116.3354,39.7254]},"properties":{"areaid":101011100,"NAMEEN":"daxing","NAMECN":"大兴","DISTRICTEN":"daxing","DISTRICTCN":"大兴","PROVEN":"beijing","PROVCN":"北京","NATIONEN":"china","NATIONCN":"中国","level":3},"id":"11"},{"type":"Feature","geometry":{"type":"Point","coordinates":[116.1364,39.7466]},"properties":{"areaid":101011200,"NAMEEN":"fangshan","NAMECN":"房山","DISTRICTEN":"fangshan","DISTRICTCN":"房山","PROVEN":"beijing","PROVCN":"北京","NATIONEN":"china","NATIONCN":"中国","level":3},"id":"12"},{"type":"Feature","geometry":{"type":"Point","coordinates":[116.8365,40.375]},"properties":{"areaid":101011300,"NAMEEN":"miyun","NAMECN":"密云","DISTRICTEN":"miyun","DISTRICTCN":"密云","PROVEN":"beijing","PROVCN":"北京","NATIONEN":"china","NATIONCN":"中国","level":3},"id":"13"},{"type":"Feature","geometry":{"type":"Point","coordinates":[116.0951,39.9391]},"properties":{"areaid":101011400,"NAMEEN":"mentougou","NAMECN":"门头沟","DISTRICTEN":"mentougou","DISTRICTCN":"门头沟","PROVEN":"beijing","PROVCN":"北京","NATIONEN":"china","NATIONCN":"中国","level":3},"id":"14"},{"type":"Feature","geometry":{"type":"Point","coordinates":[117.1144,40.1392]},"properties":{"areaid":101011500,"NAMEEN":"pinggu","NAMECN":"平谷","DISTRICTEN":"pinggu","DISTRICTCN":"平谷","PROVEN":"beijing","PROVCN":"北京","NATIONEN":"china","NATIONCN":"中国","level":3},"id":"15"},{"type":"Feature","geometry":{"type":"Point","coordinates":[116.4123,39.9092]},"properties":{"areaid":101011600,"NAMEEN":"dongcheng","NAMECN":"东城","DISTRICTEN":"dongcheng","DISTRICTCN":"东城","PROVEN":"beijing","PROVCN":"北京","NATIONEN":"china","NATIONCN":"中国","level":3},"id":"16"},{"type":"Feature","geometry":{"type":"Point","coordinates":[116.3682,39.9085]},"properties":{"areaid":101011700,"NAMEEN":"xicheng","NAMECN":"西城","DISTRICTEN":"xicheng","DISTRICTCN":"西城","PROVEN":"beijing","PROVCN":"北京","NATIONEN":"china","NATIONCN":"中国","level":3},"id":"17"},{"type":"Feature","geometry":{"type":"Point","coordinates":[121.4465,31.2177]},"properties":{"areaid":101020100,"NAMEEN":"shanghai","NAMECN":"上海","DISTRICTEN":"shanghai","DISTRICTCN":"上海","PROVEN":"shanghai","PROVCN":"上海","NATIONEN":"china","NATIONCN":"中国","level":1},"id":"18"},{"type":"Feature","geometry":{"type":"Point","coordinates":[121.3771,31.1144]},"properties":{"areaid":101020200,"NAMEEN":"minhang","NAMECN":"闵行","DISTRICTEN":"minhang","DISTRICTCN":"闵行","PROVEN":"shanghai","PROVCN":"上海","NATIONEN":"china","NATIONCN":"中国","level":3},"id":"19"},{"type":"Feature","geometry":{"type":"Point","coordinates":[121.485,31.4065]},"properties":{"areaid":101020300,"NAMEEN":"baoshan","NAMECN":"宝山","DISTRICTEN":"baoshan","DISTRICTCN":"宝山","PROVEN":"shanghai","PROVCN":"上海","NATIONEN":"china","NATIONCN":"中国","level":3},"id":"20"},{"type":"Feature","geometry":{"type":"Point","coordinates":[121.4801,31.2336]},"properties":{"areaid":101020400,"NAMEEN":"huangpu","NAMECN":"黄浦","DISTRICTEN":"huangpu","DISTRICTCN":"黄浦","PROVEN":"shanghai","PROVCN":"上海","NATIONEN":"china","NATIONCN":"中国","level":3},"id":"21"},{"type":"Feature","geometry":{"type":"Point","coordinates":[121.2612,31.3768]},"properties":{"areaid":101020500,"NAMEEN":"jiading","NAMECN":"嘉定","DISTRICTEN":"jiading","DISTRICTCN":"嘉定","PROVEN":"shanghai","PROVCN":"上海","NATIONEN":"china","NATIONCN":"中国","level":3},"id":"22"},{"type":"Feature","geometry":{"type":"Point","coordinates":[121.5398,31.2232]},"properties":{"areaid":101020600,"NAMEEN":"pudongxinqu","NAMECN":"浦东新区","DISTRICTEN":"pudongxinqu","DISTRICTCN":"浦东新区","PROVEN":"shanghai","PROVCN":"上海","NATIONEN":"china","NATIONCN":"中国","level":3},"id":"23"},{"type":"Feature","geometry":{"type":"Point","coordinates":[121.3373,30.7439]},"properties":{"areaid":101020700,"NAMEEN":"jinshan","NAMECN":"金山","DISTRICTEN":"jinshan","DISTRICTCN":"金山","PROVEN":"shanghai","PROVCN":"上海","NATIONEN":"china","NATIONCN":"中国","level":3},"id":"24"},{"type":"Feature","geometry":{"type":"Point","coordinates":[121.1197,31.1517]},"properties":{"areaid":101020800,"NAMEEN":"qingpu","NAMECN":"青浦","DISTRICTEN":"qingpu","DISTRICTCN":"青浦","PROVEN":"shanghai","PROVCN":"上海","NATIONEN":"china","NATIONCN":"中国","level":3},"id":"25"},{"type":"Feature","geometry":{"type":"Point","coordinates":[121.2245,31.0344]},"properties":{"areaid":101020900,"NAMEEN":"songjiang","NAMECN":"松江","DISTRICTEN":"songjiang","DISTRICTCN":"松江","PROVEN":"shanghai","PROVCN":"上海","NATIONEN":"china","NATIONCN":"中国","level":3},"id":"26"},{"type":"Feature","geometry":{"type":"Point","coordinates":[121.4697,30.92]},"properties":{"areaid":101021000,"NAMEEN":"fengxian","NAMECN":"奉贤","DISTRICTEN":"fengxian","DISTRICTCN":"奉贤","PROVEN":"shanghai","PROVCN":"上海","NATIONEN":"china","NATIONCN":"中国","level":3},"id":"27"},{"type":"Feature","geometry":{"type":"Point","coordinates":[121.3927,31.6245]},"properties":{"areaid":101021100,"NAMEEN":"chongming","NAMECN":"崇明","DISTRICTEN":"chongming","DISTRICTCN":"崇明","PROVEN":"shanghai","PROVCN":"上海","NATIONEN":"china","NATIONCN":"中国","level":3},"id":"28"},{"type":"Feature","geometry":{"type":"Point","coordinates":[121.4322,31.1902]},"properties":{"areaid":101021200,"NAMEEN":"xuhui","NAMECN":"徐汇","DISTRICTEN":"xuhui","DISTRICTCN":"徐汇","PROVEN":"shanghai","PROVCN":"上海","NATIONEN":"china","NATIONCN":"中国","level":3},"id":"29"},{"type":"Feature","geometry":{"type":"Point","coordinates":[121.4195,31.2222]},"properties":{"areaid":101021300,"NAMEEN":"changning","NAMECN":"长宁","DISTRICTEN":"changning","DISTRICTCN":"长宁","PROVEN":"shanghai","PROVCN":"上海","NATIONEN":"china","NATIONCN":"中国","level":3},"id":"30"},{"type":"Feature","geometry":{"type":"Point","coordinates":[121.4426,31.2295]},"properties":{"areaid":101021400,"NAMEEN":"jingan","NAMECN":"静安","DISTRICTEN":"jingan","DISTRICTCN":"静安","PROVEN":"shanghai","PROVCN":"上海","NATIONEN":"china","NATIONCN":"中国","level":3},"id":"31"},{"type":"Feature","geometry":{"type":"Point","coordinates":[121.392,31.2514]},"properties":{"areaid":101021500,"NAMEEN":"putuo","NAMECN":"普陀","DISTRICTEN":"putuo","DISTRICTCN":"普陀","PROVEN":"shanghai","PROVCN":"上海","NATIONEN":"china","NATIONCN":"中国","level":3},"id":"32"},{"type":"Feature","geometry":{"type":"Point","coordinates":[121.5011,31.2663]},"properties":{"areaid":101021600,"NAMEEN":"hongkou","NAMECN":"虹口","DISTRICTEN":"hongkou","DISTRICTCN":"虹口","PROVEN":"shanghai","PROVCN":"上海","NATIONEN":"china","NATIONCN":"中国","level":3},"id":"33"},{"type":"Feature","geometry":{"type":"Point","coordinates":[121.5217,31.2617]},"properties":{"areaid":101021700,"NAMEEN":"yangpu","NAMECN":"杨浦","DISTRICTEN":"yangpu","DISTRICTCN":"杨浦","PROVEN":"shanghai","PROVCN":"上海","NATIONEN":"china","NATIONCN":"中国","level":3},"id":"34"},{"type":"Feature","geometry":{"type":"Point","coordinates":[117.2054,39.1468]},"properties":{"areaid":101030100,"NAMEEN":"tianjin","NAMECN":"天津","DISTRICTEN":"tianjin","DISTRICTCN":"天津","PROVEN":"tianjin","PROVCN":"天津","NATIONEN":"china","NATIONCN":"中国","level":1},"id":"35"},{"type":"Feature","geometry":{"type":"Point","coordinates":[117.0382,39.383]},"properties":{"areaid":101030200,"NAMEEN":"wuqing","NAMECN":"武清","DISTRICTEN":"wuqing","DISTRICTCN":"武清","PROVEN":"tianjin","PROVCN":"天津","NATIONEN":"china","NATIONCN":"中国","level":3},"id":"36"},{"type":"Feature","geometry":{"type":"Point","coordinates":[117.3039,39.7164]},"properties":{"areaid":101030300,"NAMEEN":"baodi","NAMECN":"宝坻","DISTRICTEN":"baodi","DISTRICTCN":"宝坻","PROVEN":"tianjin","PROVCN":"天津","NATIONEN":"china","NATIONCN":"中国","level":3},"id":"37"},{"type":"Feature","geometry":{"type":"Point","coordinates":[117.308,39.0853]},"properties":{"areaid":101030400,"NAMEEN":"dongli","NAMECN":"东丽","DISTRICTEN":"dongli","DISTRICTCN":"东丽","PROVEN":"tianjin","PROVCN":"天津","NATIONEN":"china","NATIONCN":"中国","level":3},"id":"38"},{"type":"Feature","geometry":{"type":"Point","coordinates":[117.0032,39.1403]},"properties":{"areaid":101030500,"NAMEEN":"xiqing","NAMECN":"西青","DISTRICTEN":"xiqing","DISTRICTCN":"西青","PROVEN":"tianjin","PROVCN":"天津","NATIONEN":"china","NATIONCN":"中国","level":3},"id":"39"},{"type":"Feature","geometry":{"type":"Point","coordinates":[117.1258,39.2201]},"properties":{"areaid":101030600,"NAMEEN":"beichen","NAMECN":"北辰","DISTRICTEN":"beichen","DISTRICTCN":"北辰","PROVEN":"tianjin","PROVCN":"天津","NATIONEN":"china","NATIONCN":"中国","level":3},"id":"40"},{"type":"Feature","geometry":{"type":"Point","coordinates":[117.8194,39.3295]},"properties":{"areaid":101030700,"NAMEEN":"ninghe","NAMECN":"宁河","DISTRICTEN":"ninghe","DISTRICTCN":"宁河","PROVEN":"tianjin","PROVCN":"天津","NATIONEN":"china","NATIONCN":"中国","level":3},"id":"41"},{"type":"Feature","geometry":{"type":"Point","coordinates":[117.198,39.1244]},"properties":{"areaid":101030800,"NAMEEN":"heping","NAMECN":"和平","DISTRICTEN":"heping","DISTRICTCN":"和平","PROVEN":"tianjin","PROVCN":"天津","NATIONEN":"china","NATIONCN":"中国","level":3},"id":"42"},{"type":"Feature","geometry":{"type":"Point","coordinates":[116.9165,38.9392]},"properties":{"areaid":101030900,"NAMEEN":"jinghai","NAMECN":"静海","DISTRICTEN":"jinghai","DISTRICTCN":"静海","PROVEN":"tianjin","PROVCN":"天津","NATIONEN":"china","NATIONCN":"中国","level":3},"id":"43"},{"type":"Feature","geometry":{"type":"Point","coordinates":[117.3789,38.9903]},"properties":{"areaid":101031000,"NAMEEN":"jinnan","NAMECN":"津南","DISTRICTEN":"jinnan","DISTRICTCN":"津南","PROVEN":"tianjin","PROVCN":"天津","NATIONEN":"china","NATIONCN":"中国","level":3},"id":"44"},{"type":"Feature","geometry":{"type":"Point","coordinates":[117.7044,39.0023]},"properties":{"areaid":101031100,"NAMEEN":"binhaixinqu","NAMECN":"滨海新区","DISTRICTEN":"binhaixinqu","DISTRICTCN":"滨海新区","PROVEN":"tianjin","PROVCN":"天津","NATIONEN":"china","NATIONCN":"中国","level":3},"id":"45"},{"type":"Feature","geometry":{"type":"Point","coordinates":[117.219,39.122]},"properties":{"areaid":101031200,"NAMEEN":"hedong","NAMECN":"河东","DISTRICTEN":"hedong","DISTRICTCN":"河东","PROVEN":"tianjin","PROVCN":"天津","NATIONEN":"china","NATIONCN":"中国","level":3},"id":"46"},{"type":"Feature","geometry":{"type":"Point","coordinates":[117.2173,39.1086]},"properties":{"areaid":101031300,"NAMEEN":"hexi","NAMECN":"河西","DISTRICTEN":"hexi","DISTRICTCN":"河西","PROVEN":"tianjin","PROVCN":"天津","NATIONEN":"china","NATIONCN":"中国","level":3},"id":"47"},{"type":"Feature","geometry":{"type":"Point","coordinates":[117.4014,40.0443]},"properties":{"areaid":101031400,"NAMEEN":"jizhou","NAMECN":"蓟州","DISTRICTEN":"jizhou","DISTRICTCN":"蓟州","PROVEN":"tianjin","PROVCN":"天津","NATIONEN":"china","NATIONCN":"中国","level":3},"id":"48"},{"type":"Feature","geometry":{"type":"Point","coordinates":[117.1443,39.1368]},"properties":{"areaid":101031500,"NAMEEN":"nankai","NAMECN":"南开","DISTRICTEN":"nankai","DISTRICTCN":"南开","PROVEN":"tianjin","PROVCN":"天津","NATIONEN":"china","NATIONCN":"中国","level":3},"id":"49"},{"type":"Feature","geometry":{"type":"Point","coordinates":[117.1962,39.1598]},"properties":{"areaid":101031600,"NAMEEN":"hebei","NAMECN":"河北","DISTRICTEN":"hebei","DISTRICTCN":"河北","PROVEN":"tianjin","PROVCN":"天津","NATIONEN":"china","NATIONCN":"中国","level":3},"id":"50"},{"type":"Feature","geometry":{"type":"Point","coordinates":[117.1491,39.178]},"properties":{"areaid":101031700,"NAMEEN":"hongqiao","NAMECN":"红桥","DISTRICTEN":"hongqiao","DISTRICTCN":"红桥","PROVEN":"tianjin","PROVCN":"天津","NATIONEN":"china","NATIONCN":"中国","level":3},"id":"51"},{"type":"Feature","geometry":{"type":"Point","coordinates":[106.5271,29.5274]},"properties":{"areaid":101040100,"NAMEEN":"chongqing","NAMECN":"重庆","DISTRICTEN":"chongqing","DISTRICTCN":"重庆","PROVEN":"chongqing","PROVCN":"重庆","NATIONEN":"china","NATIONCN":"中国","level":1},"id":"52"},{"type":"Feature","geometry":{"type":"Point","coordinates":[105.9236,29.359]},"properties":{"areaid":101040200,"NAMEEN":"yongchuan","NAMECN":"永川","DISTRICTEN":"yongchuan","DISTRICTCN":"永川","PROVEN":"chongqing","PROVCN":"重庆","NATIONEN":"china","NATIONCN":"中国","level":3},"id":"53"},{"type":"Feature","geometry":{"type":"Point","coordinates":[106.2621,29.9871]},"properties":{"areaid":101040300,"NAMEEN":"hechuan","NAMECN":"合川","DISTRICTEN":"hechuan","DISTRICTCN":"合川","PROVEN":"chongqing","PROVCN":"重庆","NATIONEN":"china","NATIONCN":"中国","level":3},"id":"54"},{"type":"Feature","geometry":{"type":"Point","coordinates":[107.0951,29.1602]},"properties":{"areaid":101040400,"NAMEEN":"nanchuan","NAMECN":"南川","DISTRICTEN":"nanchuan","DISTRICTCN":"南川","PROVEN":"chongqing","PROVCN":"重庆","NATIONEN":"china","NATIONCN":"中国","level":3},"id":"55"},{"type":"Feature","geometry":{"type":"Point","coordinates":[106.2555,29.293]},"properties":{"areaid":101040500,"NAMEEN":"jiangjin","NAMECN":"江津","DISTRICTEN":"jiangjin","DISTRICTCN":"江津","PROVEN":"chongqing","PROVCN":"重庆","NATIONEN":"china","NATIONCN":"中国","level":3},"id":"56"},{"type":"Feature","geometry":{"type":"Point","coordinates":[106.6271,29.7211]},"properties":{"areaid":101040700,"NAMEEN":"yubei","NAMECN":"渝北","DISTRICTEN":"yubei","DISTRICTCN":"渝北","PROVEN":"chongqing","PROVCN":"重庆","NATIONEN":"china","NATIONCN":"中国","level":3},"id":"57"},{"type":"Feature","geometry":{"type":"Point","coordinates":[106.3923,29.8083]},"properties":{"areaid":101040800,"NAMEEN":"beibei","NAMECN":"北碚","DISTRICTEN":"beibei","DISTRICTCN":"北碚","PROVEN":"chongqing","PROVCN":"重庆","NATIONEN":"china","NATIONCN":"中国","level":3},"id":"58"},{"type":"Feature","geometry":{"type":"Point","coordinates":[106.52,29.386]},"properties":{"areaid":101040900,"NAMEEN":"banan","NAMECN":"巴南","DISTRICTEN":"banan","DISTRICTCN":"巴南","PROVEN":"chongqing","PROVCN":"重庆","NATIONEN":"china","NATIONCN":"中国","level":3},"id":"59"},{"type":"Feature","geometry":{"type":"Point","coordinates":[107.0727,29.8352]},"properties":{"areaid":101041000,"NAMEEN":"changshou","NAMECN":"长寿","DISTRICTEN":"changshou","DISTRICTCN":"长寿","PROVEN":"chongqing","PROVCN":"重庆","NATIONEN":"china","NATIONCN":"中国","level":3},"id":"60"},{"type":"Feature","geometry":{"type":"Point","coordinates":[108.7666,29.536]},"properties":{"areaid":101041100,"NAMEEN":"qianjiang","NAMECN":"黔江","DISTRICTEN":"qianjiang","DISTRICTCN":"黔江","PROVEN":"chongqing","PROVCN":"重庆","NATIONEN":"china","NATIONCN":"中国","level":3},"id":"61"},{"type":"Feature","geometry":{"type":"Point","coordinates":[106.565,29.5559]},"properties":{"areaid":101041200,"NAMEEN":"yuzhong","NAMECN":"渝中","DISTRICTEN":"yuzhong","DISTRICTCN":"渝中","PROVEN":"zhongqing","PROVCN":"重庆","NATIONEN":"china","NATIONCN":"中国","level":3},"id":"62"},{"type":"Feature","geometry":{"type":"Point","coordinates":[108.3728,30.814]},"properties":{"areaid":101041300,"NAMEEN":"wanzhou","NAMECN":"万州","DISTRICTEN":"wanzhou","DISTRICTCN":"万州","PROVEN":"chongqing","PROVCN":"重庆","NATIONEN":"china","NATIONCN":"中国","level":3},"id":"63"},{"type":"Feature","geometry":{"type":"Point","coordinates":[107.3855,29.7055]},"properties":{"areaid":101041400,"NAMEEN":"fuling","NAMECN":"涪陵","DISTRICTEN":"fuling","DISTRICTCN":"涪陵","PROVEN":"chongqing","PROVCN":"重庆","NATIONEN":"china","NATIONCN":"中国","level":3},"id":"64"},{"type":"Feature","geometry":{"type":"Point","coordinates":[108.4054,31.1687]},"properties":{"areaid":101041500,"NAMEEN":"kaixian","NAMECN":"开县","DISTRICTEN":"kaizhou","DISTRICTCN":"开县","PROVEN":"chongqing","PROVCN":"重庆","NATIONEN":"china","NATIONCN":"中国","level":3},"id":"65"},{"type":"Feature","geometry":{"type":"Point","coordinates":[108.6599,31.9501]},"properties":{"areaid":101041600,"NAMEEN":"chengkou","NAMECN":"城口","DISTRICTEN":"chengkou","DISTRICTCN":"城口","PROVEN":"chongqing","PROVCN":"重庆","NATIONEN":"china","NATIONCN":"中国","level":3},"id":"66"},{"type":"Feature","geometry":{"type":"Point","coordinates":[108.6929,30.9331]},"properties":{"areaid":101041700,"NAMEEN":"yunyang","NAMECN":"云阳","DISTRICTEN":"yunyang","DISTRICTCN":"云阳","PROVEN":"chongqing","PROVCN":"重庆","NATIONEN":"china","NATIONCN":"中国","level":3},"id":"67"},{"type":"Feature","geometry":{"type":"Point","coordinates":[109.6271,31.4014]},"properties":{"areaid":101041800,"NAMEEN":"wuxi","NAMECN":"巫溪","DISTRICTEN":"wuxi","DISTRICTCN":"巫溪","PROVEN":"chongqing","PROVCN":"重庆","NATIONEN":"china","NATIONCN":"中国","level":3},"id":"68"},{"type":"Feature","geometry":{"type":"Point","coordinates":[109.4597,31.0205]},"properties":{"areaid":101041900,"NAMEEN":"fengjie","NAMECN":"奉节","DISTRICTEN":"fengjie","DISTRICTCN":"奉节","PROVEN":"chongqing","PROVCN":"重庆","NATIONEN":"china","NATIONCN":"中国","level":3},"id":"69"},{"type":"Feature","geometry":{"type":"Point","coordinates":[109.8734,31.0771]},"properties":{"areaid":101042000,"NAMEEN":"wushan","NAMECN":"巫山","DISTRICTEN":"wushan","DISTRICTCN":"巫山","PROVEN":"chongqing","PROVCN":"重庆","NATIONEN":"china","NATIONCN":"中国","level":3},"id":"70"},{"type":"Feature","geometry":{"type":"Point","coordinates":[105.8368,30.1941]},"properties":{"areaid":101042100,"NAMEEN":"tongnan","NAMECN":"潼南","DISTRICTEN":"tongnan","DISTRICTCN":"潼南","PROVEN":"chongqing","PROVCN":"重庆","NATIONEN":"china","NATIONCN":"中国","level":3},"id":"71"},{"type":"Feature","geometry":{"type":"Point","coordinates":[107.3476,30.3342]},"properties":{"areaid":101042200,"NAMEEN":"dianjiang","NAMECN":"垫江","DISTRICTEN":"dianjiang","DISTRICTCN":"垫江","PROVEN":"chongqing","PROVCN":"重庆","NATIONEN":"china","NATIONCN":"中国","level":3},"id":"72"},{"type":"Feature","geometry":{"type":"Point","coordinates":[107.7979,30.6763]},"properties":{"areaid":101042300,"NAMEEN":"liangping","NAMECN":"梁平","DISTRICTEN":"liangping","DISTRICTCN":"梁平","PROVEN":"chongqing","PROVCN":"重庆","NATIONEN":"china","NATIONCN":"中国","level":3},"id":"73"},{"type":"Feature","geometry":{"type":"Point","coordinates":[108.0313,30.2911]},"properties":{"areaid":101042400,"NAMEEN":"zhongxian","NAMECN":"忠县","DISTRICTEN":"zhongxian","DISTRICTCN":"忠县","PROVEN":"chongqing","PROVCN":"重庆","NATIONEN":"china","NATIONCN":"中国","level":3},"id":"74"},{"type":"Feature","geometry":{"type":"Point","coordinates":[108.1096,30.0021]},"properties":{"areaid":101042500,"NAMEEN":"shizhu","NAMECN":"石柱","DISTRICTEN":"shizhu","DISTRICTCN":"石柱","PROVEN":"chongqing","PROVCN":"重庆","NATIONEN":"china","NATIONCN":"中国","level":3},"id":"75"},{"type":"Feature","geometry":{"type":"Point","coordinates":[105.7166,29.7074]},"properties":{"areaid":101042600,"NAMEEN":"dazu","NAMECN":"大足","DISTRICTEN":"dazu","DISTRICTCN":"大足","PROVEN":"chongqing","PROVCN":"重庆","NATIONEN":"china","NATIONCN":"中国","level":3},"id":"76"},{"type":"Feature","geometry":{"type":"Point","coordinates":[105.5911,29.4079]},"properties":{"areaid":101042700,"NAMEEN":"rongchang","NAMECN":"荣昌","DISTRICTEN":"rongchang","DISTRICTCN":"荣昌","PROVEN":"chongqing","PROVCN":"重庆","NATIONEN":"china","NATIONCN":"中国","level":3},"id":"77"},{"type":"Feature","geometry":{"type":"Point","coordinates":[106.0526,29.8471]},"properties":{"areaid":101042800,"NAMEEN":"tongliang","NAMECN":"铜梁","DISTRICTEN":"tongliang","DISTRICTCN":"铜梁","PROVEN":"chongqing","PROVCN":"重庆","NATIONEN":"china","NATIONCN":"中国","level":3},"id":"78"},{"type":"Feature","geometry":{"type":"Point","coordinates":[106.2238,29.5951]},"properties":{"areaid":101042900,"NAMEEN":"bishan","NAMECN":"璧山","DISTRICTEN":"bishan","DISTRICTCN":"璧山","PROVEN":"chongqing","PROVCN":"重庆","NATIONEN":"china","NATIONCN":"中国","level":3},"id":"79"},{"type":"Feature","geometry":{"type":"Point","coordinates":[107.7264,29.8662]},"properties":{"areaid":101043000,"NAMEEN":"fengdu","NAMECN":"丰都","DISTRICTEN":"fengdu","DISTRICTCN":"丰都","PROVEN":"chongqing","PROVCN":"重庆","NATIONEN":"china","NATIONCN":"中国","level":3},"id":"80"},{"type":"Feature","geometry":{"type":"Point","coordinates":[107.7557,29.3283]},"properties":{"areaid":101043100,"NAMEEN":"wulong","NAMECN":"武隆","DISTRICTEN":"wulong","DISTRICTCN":"武隆","PROVEN":"chongqing","PROVCN":"重庆","NATIONEN":"china","NATIONCN":"中国","level":3},"id":"81"},{"type":"Feature","geometry":{"type":"Point","coordinates":[108.1612,29.2965]},"properties":{"areaid":101043200,"NAMEEN":"pengshui","NAMECN":"彭水","DISTRICTEN":"pengshui","DISTRICTCN":"彭水","PROVEN":"chongqing","PROVCN":"重庆","NATIONEN":"china","NATIONCN":"中国","level":3},"id":"82"},{"type":"Feature","geometry":{"type":"Point","coordinates":[106.6483,29.0307]},"properties":{"areaid":101043300,"NAMEEN":"qijiang","NAMECN":"綦江","DISTRICTEN":"qijiang","DISTRICTCN":"綦江","PROVEN":"chongqing","PROVCN":"重庆","NATIONEN":"china","NATIONCN":"中国","level":3},"id":"83"},{"type":"Feature","geometry":{"type":"Point","coordinates":[108.7637,28.8446]},"properties":{"areaid":101043400,"NAMEEN":"youyang","NAMECN":"酉阳","DISTRICTEN":"youyang","DISTRICTCN":"酉阳","PROVEN":"chongqing","PROVCN":"重庆","NATIONEN":"china","NATIONCN":"中国","level":3},"id":"84"},{"type":"Feature","geometry":{"type":"Point","coordinates":[106.4781,29.4869]},"properties":{"areaid":101043500,"NAMEEN":"dadukou","NAMECN":"大渡口","DISTRICTEN":"dadukou","DISTRICTCN":"大渡口","PROVEN":"zhongqing","PROVCN":"重庆","NATIONEN":"china","NATIONCN":"中国","level":3},"id":"85"},{"type":"Feature","geometry":{"type":"Point","coordinates":[108.9838,28.4518]},"properties":{"areaid":101043600,"NAMEEN":"xiushan","NAMECN":"秀山","DISTRICTEN":"xiushan","DISTRICTCN":"秀山","PROVEN":"chongqing","PROVCN":"重庆","NATIONEN":"china","NATIONCN":"中国","level":3},"id":"86"},{"type":"Feature","geometry":{"type":"Point","coordinates":[106.531,29.5713]},"properties":{"areaid":101043700,"NAMEEN":"jiangbei","NAMECN":"江北","DISTRICTEN":"jiangbei","DISTRICTCN":"江北","PROVEN":"zhongqing","PROVCN":"重庆","NATIONEN":"china","NATIONCN":"中国","level":3},"id":"87"},{"type":"Feature","geometry":{"type":"Point","coordinates":[106.4536,29.5438]},"properties":{"areaid":101043800,"NAMEEN":"shapingba","NAMECN":"沙坪坝","DISTRICTEN":"shapingba","DISTRICTCN":"沙坪坝","PROVEN":"zhongqing","PROVCN":"重庆","NATIONEN":"china","NATIONCN":"中国","level":3},"id":"88"},{"type":"Feature","geometry":{"type":"Point","coordinates":[106.5073,29.5048]},"properties":{"areaid":101043900,"NAMEEN":"jiulongpo","NAMECN":"九龙坡","DISTRICTEN":"jiulongpo","DISTRICTCN":"九龙坡","PROVEN":"zhongqing","PROVCN":"重庆","NATIONEN":"china","NATIONCN":"中国","level":3},"id":"89"},{"type":"Feature","geometry":{"type":"Point","coordinates":[106.5599,29.526]},"properties":{"areaid":101044000,"NAMEEN":"nanan","NAMECN":"南岸","DISTRICTEN":"nanan","DISTRICTCN":"南岸","PROVEN":"zhongqing","PROVCN":"重庆","NATIONEN":"china","NATIONCN":"中国","level":3},"id":"90"},{"type":"Feature","geometry":{"type":"Point","coordinates":[108.4054,31.1687]},"properties":{"areaid":101044100,"NAMEEN":"kaizhou","NAMECN":"开州","DISTRICTEN":"kaizhou","DISTRICTCN":"开州","PROVEN":"zhongqing","PROVCN":"重庆","NATIONEN":"china","NATIONCN":"中国","level":3},"id":"91"},{"type":"Feature","geometry":{"type":"Point","coordinates":[126.6445,45.7421]},"properties":{"areaid":101050101,"NAMEEN":"haerbin","NAMECN":"哈尔滨","DISTRICTEN":"haerbin","DISTRICTCN":"哈尔滨","PROVEN":"heilongjiang","PROVCN":"黑龙江","NATIONEN":"china","NATIONCN":"中国","level":1},"id":"92"},{"type":"Feature","geometry":{"type":"Point","coordinates":[126.3103,45.375]},"properties":{"areaid":101050102,"NAMEEN":"shuangcheng","NAMECN":"双城","DISTRICTEN":"haerbin","DISTRICTCN":"哈尔滨","PROVEN":"heilongjiang","PROVCN":"黑龙江","NATIONEN":"china","NATIONCN":"中国","level":3},"id":"93"},{"type":"Feature","geometry":{"type":"Point","coordinates":[126.5987,45.9827]},"properties":{"areaid":101050103,"NAMEEN":"hulan","NAMECN":"呼兰","DISTRICTEN":"haerbin","DISTRICTCN":"哈尔滨","PROVEN":"heilongjiang","PROVCN":"黑龙江","NATIONEN":"china","NATIONCN":"中国","level":3},"id":"94"},{"type":"Feature","geometry":{"type":"Point","coordinates":[126.9713,45.5395]},"properties":{"areaid":101050104,"NAMEEN":"acheng","NAMECN":"阿城","DISTRICTEN":"haerbin","DISTRICTCN":"哈尔滨","PROVEN":"heilongjiang","PROVCN":"黑龙江","NATIONEN":"china","NATIONCN":"中国","level":3},"id":"95"},{"type":"Feature","geometry":{"type":"Point","coordinates":[127.4802,45.7529]},"properties":{"areaid":101050105,"NAMEEN":"binxian","NAMECN":"宾县","DISTRICTEN":"haerbin","DISTRICTCN":"哈尔滨","PROVEN":"heilongjiang","PROVCN":"黑龙江","NATIONEN":"china","NATIONCN":"中国","level":3},"id":"96"},{"type":"Feature","geometry":{"type":"Point","coordinates":[129.5563,46.315]},"properties":{"areaid":101050106,"NAMEEN":"yilan","NAMECN":"依兰","DISTRICTEN":"haerbin","DISTRICTCN":"哈尔滨","PROVEN":"heilongjiang","PROVCN":"黑龙江","NATIONEN":"china","NATIONCN":"中国","level":3},"id":"97"},{"type":"Feature","geometry":{"type":"Point","coordinates":[127.4012,46.0793]},"properties":{"areaid":101050107,"NAMEEN":"bayan","NAMECN":"巴彦","DISTRICTEN":"haerbin","DISTRICTCN":"哈尔滨","PROVEN":"heilongjiang","PROVCN":"黑龙江","NATIONEN":"china","NATIONCN":"中国","level":3},"id":"98"},{"type":"Feature","geometry":{"type":"Point","coordinates":[128.7422,45.9737]},"properties":{"areaid":101050108,"NAMEEN":"tonghe","NAMECN":"通河","DISTRICTEN":"haerbin","DISTRICTCN":"哈尔滨","PROVEN":"heilongjiang","PROVCN":"黑龙江","NATIONEN":"china","NATIONCN":"中国","level":3},"id":"99"},{"type":"Feature","geometry":{"type":"Point","coordinates":[128.8294,45.8377]},"properties":{"areaid":101050109,"NAMEEN":"fangzheng","NAMECN":"方正","DISTRICTEN":"haerbin","DISTRICTCN":"哈尔滨","PROVEN":"heilongjiang","PROVCN":"黑龙江","NATIONEN":"china","NATIONCN":"中国","level":3},"id":"100"},{"type":"Feature","geometry":{"type":"Point","coordinates":[128.3277,45.4532]},"properties":{"areaid":101050110,"NAMEEN":"yanshou","NAMECN":"延寿","DISTRICTEN":"haerbin","DISTRICTCN":"哈尔滨","PROVEN":"heilongjiang","PROVCN":"黑龙江","NATIONEN":"china","NATIONCN":"中国","level":3},"id":"101"},{"type":"Feature","geometry":{"type":"Point","coordinates":[127.9665,45.2156]},"properties":{"areaid":101050111,"NAMEEN":"shangzhi","NAMECN":"尚志","DISTRICTEN":"haerbin","DISTRICTCN":"哈尔滨","PROVEN":"heilongjiang","PROVCN":"黑龙江","NATIONEN":"china","NATIONCN":"中国","level":3},"id":"102"},{"type":"Feature","geometry":{"type":"Point","coordinates":[127.1519,44.9158]},"properties":{"areaid":101050112,"NAMEEN":"wuchang","NAMECN":"五常","DISTRICTEN":"haerbin","DISTRICTCN":"哈尔滨","PROVEN":"heilongjiang","PROVCN":"黑龙江","NATIONEN":"china","NATIONCN":"中国","level":3},"id":"103"},{"type":"Feature","geometry":{"type":"Point","coordinates":[128.0382,45.9473]},"properties":{"areaid":101050113,"NAMEEN":"mulan","NAMECN":"木兰","DISTRICTEN":"haerbin","DISTRICTCN":"哈尔滨","PROVEN":"heilongjiang","PROVCN":"黑龙江","NATIONEN":"china","NATIONCN":"中国","level":3},"id":"104"},{"type":"Feature","geometry":{"type":"Point","coordinates":[126.611,45.7539]},"properties":{"areaid":101050114,"NAMEEN":"daoli","NAMECN":"道里","DISTRICTEN":"haerbin","DISTRICTCN":"哈尔滨","PROVEN":"heilongjiang","PROVCN":"黑龙江","NATIONEN":"china","NATIONCN":"中国","level":3},"id":"105"},{"type":"Feature","geometry":{"type":"Point","coordinates":[126.6626,45.7581]},"properties":{"areaid":101050115,"NAMEEN":"nangang","NAMECN":"南岗","DISTRICTEN":"haerbin","DISTRICTCN":"哈尔滨","PROVEN":"heilongjiang","PROVCN":"黑龙江","NATIONEN":"china","NATIONCN":"中国","level":3},"id":"106"},{"type":"Feature","geometry":{"type":"Point","coordinates":[126.6434,45.79]},"properties":{"areaid":101050116,"NAMEEN":"daowai","NAMECN":"道外","DISTRICTEN":"haerbin","DISTRICTCN":"哈尔滨","PROVEN":"heilongjiang","PROVCN":"黑龙江","NATIONEN":"china","NATIONCN":"中国","level":3},"id":"107"},{"type":"Feature","geometry":{"type":"Point","coordinates":[126.6315,45.5959]},"properties":{"areaid":101050117,"NAMEEN":"pingfang","NAMECN":"平房","DISTRICTEN":"haerbin","DISTRICTCN":"哈尔滨","PROVEN":"heilongjiang","PROVCN":"黑龙江","NATIONEN":"china","NATIONCN":"中国","level":3},"id":"108"},{"type":"Feature","geometry":{"type":"Point","coordinates":[126.5568,45.8063]},"properties":{"areaid":101050118,"NAMEEN":"songbei","NAMECN":"松北","DISTRICTEN":"haerbin","DISTRICTCN":"哈尔滨","PROVEN":"heilongjiang","PROVCN":"黑龙江","NATIONEN":"china","NATIONCN":"中国","level":3},"id":"109"},{"type":"Feature","geometry":{"type":"Point","coordinates":[126.6737,45.7219]},"properties":{"areaid":101050119,"NAMEEN":"xiangfang","NAMECN":"香坊","DISTRICTEN":"haerbin","DISTRICTCN":"哈尔滨","PROVEN":"heilongjiang","PROVCN":"黑龙江","NATIONEN":"china","NATIONCN":"中国","level":3},"id":"110"},{"type":"Feature","geometry":{"type":"Point","coordinates":[123.9637,47.3447]},"properties":{"areaid":101050201,"NAMEEN":"qiqihaer","NAMECN":"齐齐哈尔","DISTRICTEN":"qiqihaer","DISTRICTCN":"齐齐哈尔","PROVEN":"heilongjiang","PROVCN":"黑龙江","NATIONEN":"china","NATIONCN":"中国","level":2},"id":"111"},{"type":"Feature","geometry":{"type":"Point","coordinates":[124.8704,48.4821]},"properties":{"areaid":101050202,"NAMEEN":"nehe","NAMECN":"讷河","DISTRICTEN":"qiqihaer","DISTRICTCN":"齐齐哈尔","PROVEN":"heilongjiang","PROVCN":"黑龙江","NATIONEN":"china","NATIONCN":"中国","level":3},"id":"112"},{"type":"Feature","geometry":{"type":"Point","coordinates":[123.1823,47.3287]},"properties":{"areaid":101050203,"NAMEEN":"longjiang","NAMECN":"龙江","DISTRICTEN":"qiqihaer","DISTRICTCN":"齐齐哈尔","PROVEN":"heilongjiang","PROVCN":"黑龙江","NATIONEN":"china","NATIONCN":"中国","level":3},"id":"113"},{"type":"Feature","geometry":{"type":"Point","coordinates":[123.4963,47.9222]},"properties":{"areaid":101050204,"NAMEEN":"gannan","NAMECN":"甘南","DISTRICTEN":"qiqihaer","DISTRICTCN":"齐齐哈尔","PROVEN":"heilongjiang","PROVCN":"黑龙江","NATIONEN":"china","NATIONCN":"中国","level":3},"id":"114"},{"type":"Feature","geometry":{"type":"Point","coordinates":[124.4598,47.7967]},"properties":{"areaid":101050205,"NAMEEN":"fuyu","NAMECN":"富裕","DISTRICTEN":"qiqihaer","DISTRICTCN":"齐齐哈尔","PROVEN":"heilongjiang","PROVCN":"黑龙江","NATIONEN":"china","NATIONCN":"中国","level":3},"id":"115"},{"type":"Feature","geometry":{"type":"Point","coordinates":[125.3018,47.8909]},"properties":{"areaid":101050206,"NAMEEN":"yian","NAMECN":"依安","DISTRICTEN":"qiqihaer","DISTRICTCN":"齐齐哈尔","PROVEN":"heilongjiang","PROVCN":"黑龙江","NATIONEN":"china","NATIONCN":"中国","level":3},"id":"116"},{"type":"Feature","geometry":{"type":"Point","coordinates":[126.0848,47.6057]},"properties":{"areaid":101050207,"NAMEEN":"baiquan","NAMECN":"拜泉","DISTRICTEN":"qiqihaer","DISTRICTCN":"齐齐哈尔","PROVEN":"heilongjiang","PROVCN":"黑龙江","NATIONEN":"china","NATIONCN":"中国","level":3},"id":"117"},{"type":"Feature","geometry":{"type":"Point","coordinates":[125.8673,48.0306]},"properties":{"areaid":101050208,"NAMEEN":"keshan","NAMECN":"克山","DISTRICTEN":"qiqihaer","DISTRICTCN":"齐齐哈尔","PROVEN":"heilongjiang","PROVCN":"黑龙江","NATIONEN":"china","NATIONCN":"中国","level":3},"id":"118"},{"type":"Feature","geometry":{"type":"Point","coordinates":[126.2425,48.0361]},"properties":{"areaid":101050209,"NAMEEN":"kedong","NAMECN":"克东","DISTRICTEN":"qiqihaer","DISTRICTCN":"齐齐哈尔","PROVEN":"heilongjiang","PROVCN":"黑龙江","NATIONEN":"china","NATIONCN":"中国","level":3},"id":"119"},{"type":"Feature","geometry":{"type":"Point","coordinates":[123.4131,46.3895]},"properties":{"areaid":101050210,"NAMEEN":"tailai","NAMECN":"泰来","DISTRICTEN":"qiqihaer","DISTRICTCN":"齐齐哈尔","PROVEN":"heilongjiang","PROVCN":"黑龙江","NATIONEN":"china","NATIONCN":"中国","level":3},"id":"120"},{"type":"Feature","geometry":{"type":"Point","coordinates":[123.951,47.3158]},"properties":{"areaid":101050211,"NAMEEN":"longsha","NAMECN":"龙沙","DISTRICTEN":"qiqihaer","DISTRICTCN":"齐齐哈尔","PROVEN":"heilongjiang","PROVCN":"黑龙江","NATIONEN":"china","NATIONCN":"中国","level":3},"id":"121"},{"type":"Feature","geometry":{"type":"Point","coordinates":[123.9486,47.3523]},"properties":{"areaid":101050212,"NAMEEN":"jianhua","NAMECN":"建华","DISTRICTEN":"qiqihaer","DISTRICTCN":"齐齐哈尔","PROVEN":"heilongjiang","PROVCN":"黑龙江","NATIONEN":"china","NATIONCN":"中国","level":3},"id":"122"},{"type":"Feature","geometry":{"type":"Point","coordinates":[123.9711,47.3387]},"properties":{"areaid":101050213,"NAMEEN":"tiefeng","NAMECN":"铁锋","DISTRICTEN":"qiqihaer","DISTRICTCN":"齐齐哈尔","PROVEN":"heilongjiang","PROVCN":"黑龙江","NATIONEN":"china","NATIONCN":"中国","level":3},"id":"123"},{"type":"Feature","geometry":{"type":"Point","coordinates":[123.8003,47.1566]},"properties":{"areaid":101050214,"NAMEEN":"angangxi","NAMECN":"昂昂溪","DISTRICTEN":"qiqihaer","DISTRICTCN":"齐齐哈尔","PROVEN":"heilongjiang","PROVCN":"黑龙江","NATIONEN":"china","NATIONCN":"中国","level":3},"id":"124"},{"type":"Feature","geometry":{"type":"Point","coordinates":[123.6253,47.2078]},"properties":{"areaid":101050215,"NAMEEN":"fulaerji","NAMECN":"富拉尔基","DISTRICTEN":"qiqihaer","DISTRICTCN":"齐齐哈尔","PROVEN":"heilongjiang","PROVCN":"黑龙江","NATIONEN":"china","NATIONCN":"中国","level":3},"id":"125"},{"type":"Feature","geometry":{"type":"Point","coordinates":[122.8757,47.5146]},"properties":{"areaid":101050216,"NAMEEN":"nianzishan","NAMECN":"碾子山","DISTRICTEN":"qiqihaer","DISTRICTCN":"齐齐哈尔","PROVEN":"heilongjiang","PROVCN":"黑龙江","NATIONEN":"china","NATIONCN":"中国","level":3},"id":"126"},{"type":"Feature","geometry":{"type":"Point","coordinates":[123.7482,47.3093]},"properties":{"areaid":101050217,"NAMEEN":"meilisi","NAMECN":"梅里斯","DISTRICTEN":"qiqihaer","DISTRICTCN":"齐齐哈尔","PROVEN":"heilongjiang","PROVCN":"黑龙江","NATIONEN":"china","NATIONCN":"中国","level":3},"id":"127"},{"type":"Feature","geometry":{"type":"Point","coordinates":[129.6184,44.5822]},"properties":{"areaid":101050301,"NAMEEN":"mudanjiang","NAMECN":"牡丹江","DISTRICTEN":"mudanjiang","DISTRICTCN":"牡丹江","PROVEN":"heilongjiang","PROVCN":"黑龙江","NATIONEN":"china","NATIONCN":"中国","level":2},"id":"128"},{"type":"Feature","geometry":{"type":"Point","coordinates":[129.3825,44.5735]},"properties":{"areaid":101050302,"NAMEEN":"hailin","NAMECN":"海林","DISTRICTEN":"mudanjiang","DISTRICTCN":"牡丹江","PROVEN":"heilongjiang","PROVCN":"黑龙江","NATIONEN":"china","NATIONCN":"中国","level":3},"id":"129"},{"type":"Feature","geometry":{"type":"Point","coordinates":[130.5236,44.9187]},"properties":{"areaid":101050303,"NAMEEN":"muling","NAMECN":"穆棱","DISTRICTEN":"mudanjiang","DISTRICTCN":"牡丹江","PROVEN":"heilongjiang","PROVCN":"黑龙江","NATIONEN":"china","NATIONCN":"中国","level":3},"id":"130"},{"type":"Feature","geometry":{"type":"Point","coordinates":[130.2728,45.2919]},"properties":{"areaid":101050304,"NAMEEN":"linkou","NAMECN":"林口","DISTRICTEN":"mudanjiang","DISTRICTCN":"牡丹江","PROVEN":"heilongjiang","PROVCN":"黑龙江","NATIONEN":"china","NATIONCN":"中国","level":3},"id":"131"},{"type":"Feature","geometry":{"type":"Point","coordinates":[131.1563,44.3945]},"properties":{"areaid":101050305,"NAMEEN":"suifenhe","NAMECN":"绥芬河","DISTRICTEN":"mudanjiang","DISTRICTCN":"牡丹江","PROVEN":"heilongjiang","PROVCN":"黑龙江","NATIONEN":"china","NATIONCN":"中国","level":3},"id":"132"},{"type":"Feature","geometry":{"type":"Point","coordinates":[129.4652,44.3474]},"properties":{"areaid":101050306,"NAMEEN":"ningan","NAMECN":"宁安","DISTRICTEN":"mudanjiang","DISTRICTCN":"牡丹江","PROVEN":"heilongjiang","PROVCN":"黑龙江","NATIONEN":"china","NATIONCN":"中国","level":3},"id":"133"},{"type":"Feature","geometry":{"type":"Point","coordinates":[131.1202,44.0636]},"properties":{"areaid":101050307,"NAMEEN":"dongning","NAMECN":"东宁","DISTRICTEN":"mudanjiang","DISTRICTCN":"牡丹江","PROVEN":"heilongjiang","PROVCN":"黑龙江","NATIONEN":"china","NATIONCN":"中国","level":3},"id":"134"},{"type":"Feature","geometry":{"type":"Point","coordinates":[129.6196,44.5792]},"properties":{"areaid":101050308,"NAMEEN":"dongan","NAMECN":"东安","DISTRICTEN":"mudanjiang","DISTRICTCN":"牡丹江","PROVEN":"heilongjiang","PROVCN":"黑龙江","NATIONEN":"china","NATIONCN":"中国","level":3},"id":"135"},{"type":"Feature","geometry":{"type":"Point","coordinates":[129.6284,44.5942]},"properties":{"areaid":101050309,"NAMEEN":"yangming","NAMECN":"阳明","DISTRICTEN":"mudanjiang","DISTRICTCN":"牡丹江","PROVEN":"heilongjiang","PROVCN":"黑龙江","NATIONEN":"china","NATIONCN":"中国","level":3},"id":"136"},{"type":"Feature","geometry":{"type":"Point","coordinates":[129.583,44.5945]},"properties":{"areaid":101050310,"NAMEEN":"aimin","NAMECN":"爱民","DISTRICTEN":"mudanjiang","DISTRICTCN":"牡丹江","PROVEN":"heilongjiang","PROVCN":"黑龙江","NATIONEN":"china","NATIONCN":"中国","level":3},"id":"137"},{"type":"Feature","geometry":{"type":"Point","coordinates":[129.609,44.5756]},"properties":{"areaid":101050311,"NAMEEN":"xian","NAMECN":"西安","DISTRICTEN":"mudanjiang","DISTRICTCN":"牡丹江","PROVEN":"heilongjiang","PROVCN":"黑龙江","NATIONEN":"china","NATIONCN":"中国","level":3},"id":"138"},{"type":"Feature","geometry":{"type":"Point","coordinates":[130.3514,46.806]},"properties":{"areaid":101050401,"NAMEEN":"jiamusi","NAMECN":"佳木斯","DISTRICTEN":"jiamusi","DISTRICTCN":"佳木斯","PROVEN":"heilongjiang","PROVCN":"黑龙江","NATIONEN":"china","NATIONCN":"中国","level":2},"id":"139"},{"type":"Feature","geometry":{"type":"Point","coordinates":[129.897,46.7279]},"properties":{"areaid":101050402,"NAMEEN":"tangyuan","NAMECN":"汤原","DISTRICTEN":"jiamusi","DISTRICTCN":"佳木斯","PROVEN":"heilongjiang","PROVCN":"黑龙江","NATIONEN":"china","NATIONCN":"中国","level":3},"id":"140"},{"type":"Feature","geometry":{"type":"Point","coordinates":[134.288,48.3656]},"properties":{"areaid":101050403,"NAMEEN":"fuyuan","NAMECN":"抚远","DISTRICTEN":"jiamusi","DISTRICTCN":"佳木斯","PROVEN":"heilongjiang","PROVCN":"黑龙江","NATIONEN":"china","NATIONCN":"中国","level":3},"id":"141"},{"type":"Feature","geometry":{"type":"Point","coordinates":[130.709,47.021]},"properties":{"areaid":101050404,"NAMEEN":"huachuan","NAMECN":"桦川","DISTRICTEN":"jiamusi","DISTRICTCN":"佳木斯","PROVEN":"heilongjiang","PROVCN":"黑龙江","NATIONEN":"china","NATIONCN":"中国","level":3},"id":"142"},{"type":"Feature","geometry":{"type":"Point","coordinates":[130.566,46.2411]},"properties":{"areaid":101050405,"NAMEEN":"huanan","NAMECN":"桦南","DISTRICTEN":"jiamusi","DISTRICTCN":"佳木斯","PROVEN":"heilongjiang","PROVCN":"黑龙江","NATIONEN":"china","NATIONCN":"中国","level":3},"id":"143"},{"type":"Feature","geometry":{"type":"Point","coordinates":[132.506,47.6429]},"properties":{"areaid":101050406,"NAMEEN":"tongjiang","NAMECN":"同江","DISTRICTEN":"jiamusi","DISTRICTCN":"佳木斯","PROVEN":"heilongjiang","PROVCN":"黑龙江","NATIONEN":"china","NATIONCN":"中国","level":3},"id":"144"},{"type":"Feature","geometry":{"type":"Point","coordinates":[132.03,47.2455]},"properties":{"areaid":101050407,"NAMEEN":"fujin","NAMECN":"富锦","DISTRICTEN":"jiamusi","DISTRICTCN":"佳木斯","PROVEN":"heilongjiang","PROVCN":"黑龙江","NATIONEN":"china","NATIONCN":"中国","level":3},"id":"145"},{"type":"Feature","geometry":{"type":"Point","coordinates":[130.3575,46.8055]},"properties":{"areaid":101050408,"NAMEEN":"xiangyang","NAMECN":"向阳","DISTRICTEN":"jiamusi","DISTRICTCN":"佳木斯","PROVEN":"heilongjiang","PROVCN":"黑龙江","NATIONEN":"china","NATIONCN":"中国","level":3},"id":"146"},{"type":"Feature","geometry":{"type":"Point","coordinates":[130.3673,46.8118]},"properties":{"areaid":101050409,"NAMEEN":"qianjin","NAMECN":"前进","DISTRICTEN":"jiamusi","DISTRICTCN":"佳木斯","PROVEN":"heilongjiang","PROVCN":"黑龙江","NATIONEN":"china","NATIONCN":"中国","level":3},"id":"147"},{"type":"Feature","geometry":{"type":"Point","coordinates":[130.3951,46.8203]},"properties":{"areaid":101050410,"NAMEEN":"dongfeng","NAMECN":"东风","DISTRICTEN":"jiamusi","DISTRICTCN":"佳木斯","PROVEN":"heilongjiang","PROVCN":"黑龙江","NATIONEN":"china","NATIONCN":"中国","level":3},"id":"148"},{"type":"Feature","geometry":{"type":"Point","coordinates":[130.3192,46.8073]},"properties":{"areaid":101050411,"NAMEEN":"jiaoqu","NAMECN":"郊区","DISTRICTEN":"jiamusi","DISTRICTCN":"佳木斯","PROVEN":"heilongjiang","PROVCN":"黑龙江","NATIONEN":"china","NATIONCN":"中国","level":3},"id":"149"},{"type":"Feature","geometry":{"type":"Point","coordinates":[126.9896,46.6375]},"properties":{"areaid":101050501,"NAMEEN":"suihua","NAMECN":"绥化","DISTRICTEN":"suihua","DISTRICTCN":"绥化","PROVEN":"heilongjiang","PROVCN":"黑龙江","NATIONEN":"china","NATIONCN":"中国","level":2},"id":"150"},{"type":"Feature","geometry":{"type":"Point","coordinates":[125.9847,46.0732]},"properties":{"areaid":101050502,"NAMEEN":"zhaodong","NAMECN":"肇东","DISTRICTEN":"suihua","DISTRICTCN":"绥化","PROVEN":"heilongjiang","PROVCN":"黑龙江","NATIONEN":"china","NATIONCN":"中国","level":3},"id":"151"},{"type":"Feature","geometry":{"type":"Point","coordinates":[125.3221,46.4018]},"properties":{"areaid":101050503,"NAMEEN":"anda","NAMECN":"安达","DISTRICTEN":"suihua","DISTRICTCN":"绥化","PROVEN":"heilongjiang","PROVCN":"黑龙江","NATIONEN":"china","NATIONCN":"中国","level":3},"id":"152"},{"type":"Feature","geometry":{"type":"Point","coordinates":[126.9609,47.4599]},"properties":{"areaid":101050504,"NAMEEN":"hailun","NAMECN":"海伦","DISTRICTEN":"suihua","DISTRICTCN":"绥化","PROVEN":"heilongjiang","PROVCN":"黑龙江","NATIONEN":"china","NATIONCN":"中国","level":3},"id":"153"},{"type":"Feature","geometry":{"type":"Point","coordinates":[125.9054,47.1785]},"properties":{"areaid":101050505,"NAMEEN":"mingshui","NAMECN":"明水","DISTRICTEN":"suihua","DISTRICTCN":"绥化","PROVEN":"heilongjiang","PROVCN":"黑龙江","NATIONEN":"china","NATIONCN":"中国","level":3},"id":"154"},{"type":"Feature","geometry":{"type":"Point","coordinates":[126.478,46.8317]},"properties":{"areaid":101050506,"NAMEEN":"wangkui","NAMECN":"望奎","DISTRICTEN":"suihua","DISTRICTCN":"绥化","PROVEN":"heilongjiang","PROVCN":"黑龙江","NATIONEN":"china","NATIONCN":"中国","level":3},"id":"155"},{"type":"Feature","geometry":{"type":"Point","coordinates":[126.2915,46.2574]},"properties":{"areaid":101050507,"NAMEEN":"lanxi","NAMECN":"兰西","DISTRICTEN":"suihua","DISTRICTCN":"绥化","PROVEN":"heilongjiang","PROVCN":"黑龙江","NATIONEN":"china","NATIONCN":"中国","level":3},"id":"156"},{"type":"Feature","geometry":{"type":"Point","coordinates":[126.103,46.682]},"properties":{"areaid":101050508,"NAMEEN":"qinggang","NAMECN":"青冈","DISTRICTEN":"suihua","DISTRICTCN":"绥化","PROVEN":"heilongjiang","PROVCN":"黑龙江","NATIONEN":"china","NATIONCN":"中国","level":3},"id":"157"},{"type":"Feature","geometry":{"type":"Point","coordinates":[127.5042,46.8758]},"properties":{"areaid":101050509,"NAMEEN":"qingan","NAMECN":"庆安","DISTRICTEN":"suihua","DISTRICTCN":"绥化","PROVEN":"heilongjiang","PROVCN":"黑龙江","NATIONEN":"china","NATIONCN":"中国","level":3},"id":"158"},{"type":"Feature","geometry":{"type":"Point","coordinates":[127.1048,47.2445]},"properties":{"areaid":101050510,"NAMEEN":"suiling","NAMECN":"绥棱","DISTRICTEN":"suihua","DISTRICTCN":"绥化","PROVEN":"heilongjiang","PROVCN":"黑龙江","NATIONEN":"china","NATIONCN":"中国","level":3},"id":"159"},{"type":"Feature","geometry":{"type":"Point","coordinates":[126.9791,46.6354]},"properties":{"areaid":101050511,"NAMEEN":"beilin","NAMECN":"北林","DISTRICTEN":"suihua","DISTRICTCN":"绥化","PROVEN":"heilongjiang","PROVCN":"黑龙江","NATIONEN":"china","NATIONCN":"中国","level":3},"id":"160"},{"type":"Feature","geometry":{"type":"Point","coordinates":[127.4894,50.2429]},"properties":{"areaid":101050601,"NAMEEN":"heihe","NAMECN":"黑河","DISTRICTEN":"heihe","DISTRICTCN":"黑河","PROVEN":"heilongjiang","PROVCN":"黑龙江","NATIONEN":"china","NATIONCN":"中国","level":2},"id":"161"},{"type":"Feature","geometry":{"type":"Point","coordinates":[125.2188,49.1764]},"properties":{"areaid":101050602,"NAMEEN":"nenjiang","NAMECN":"嫩江","DISTRICTEN":"heihe","DISTRICTCN":"黑河","PROVEN":"heilongjiang","PROVCN":"黑龙江","NATIONEN":"china","NATIONCN":"中国","level":3},"id":"162"},{"type":"Feature","geometry":{"type":"Point","coordinates":[127.3172,49.4209]},"properties":{"areaid":101050603,"NAMEEN":"sunwu","NAMECN":"孙吴","DISTRICTEN":"heihe","DISTRICTCN":"黑河","PROVEN":"heilongjiang","PROVCN":"黑龙江","NATIONEN":"china","NATIONCN":"中国","level":3},"id":"163"},{"type":"Feature","geometry":{"type":"Point","coordinates":[128.4714,49.5777]},"properties":{"areaid":101050604,"NAMEEN":"xunke","NAMECN":"逊克","DISTRICTEN":"heihe","DISTRICTCN":"黑河","PROVEN":"heilongjiang","PROVCN":"黑龙江","NATIONEN":"china","NATIONCN":"中国","level":3},"id":"164"},{"type":"Feature","geometry":{"type":"Point","coordinates":[126.1961,48.513]},"properties":{"areaid":101050605,"NAMEEN":"wudalianchi","NAMECN":"五大连池","DISTRICTEN":"heihe","DISTRICTCN":"黑河","PROVEN":"heilongjiang","PROVCN":"黑龙江","NATIONEN":"china","NATIONCN":"中国","level":3},"id":"165"},{"type":"Feature","geometry":{"type":"Point","coordinates":[126.5135,48.2413]},"properties":{"areaid":101050606,"NAMEEN":"beian","NAMECN":"北安","DISTRICTEN":"heihe","DISTRICTCN":"黑河","PROVEN":"heilongjiang","PROVCN":"黑龙江","NATIONEN":"china","NATIONCN":"中国","level":3},"id":"166"},{"type":"Feature","geometry":{"type":"Point","coordinates":[127.4885,50.247]},"properties":{"areaid":101050607,"NAMEEN":"aihui","NAMECN":"爱辉","DISTRICTEN":"heihe","DISTRICTCN":"黑河","PROVEN":"heilongjiang","PROVCN":"黑龙江","NATIONEN":"china","NATIONCN":"中国","level":3},"id":"167"},{"type":"Feature","geometry":{"type":"Point","coordinates":[124.2961,51.9857]},"properties":{"areaid":101050701,"NAMEEN":"daxinganling","NAMECN":"大兴安岭","DISTRICTEN":"daxinganling","DISTRICTCN":"大兴安岭","PROVEN":"heilongjiang","PROVCN":"黑龙江","NATIONEN":"china","NATIONCN":"中国","level":2},"id":"168"},{"type":"Feature","geometry":{"type":"Point","coordinates":[124.7023,52.3329]},"properties":{"areaid":101050702,"NAMEEN":"tahe","NAMECN":"塔河","DISTRICTEN":"daxinganling","DISTRICTCN":"大兴安岭","PROVEN":"heilongjiang","PROVCN":"黑龙江","NATIONEN":"china","NATIONCN":"中国","level":3},"id":"169"},{"type":"Feature","geometry":{"type":"Point","coordinates":[122.5316,52.9706]},"properties":{"areaid":101050703,"NAMEEN":"mohe","NAMECN":"漠河","DISTRICTEN":"daxinganling","DISTRICTCN":"大兴安岭","PROVEN":"heilongjiang","PROVCN":"黑龙江","NATIONEN":"china","NATIONCN":"中国","level":3},"id":"170"},{"type":"Feature","geometry":{"type":"Point","coordinates":[126.6582,51.7243]},"properties":{"areaid":101050704,"NAMEEN":"huma","NAMECN":"呼玛","DISTRICTEN":"daxinganling","DISTRICTCN":"大兴安岭","PROVEN":"heilongjiang","PROVCN":"黑龙江","NATIONEN":"china","NATIONCN":"中国","level":3},"id":"171"},{"type":"Feature","geometry":{"type":"Point","coordinates":[128.9073,47.728]},"properties":{"areaid":101050801,"NAMEEN":"yichun","NAMECN":"伊春","DISTRICTEN":"yichun","DISTRICTCN":"伊春","PROVEN":"heilongjiang","PROVCN":"黑龙江","NATIONEN":"china","NATIONCN":"中国","level":3},"id":"172"},{"type":"Feature","geometry":{"type":"Point","coordinates":[129.4253,48.5948]},"properties":{"areaid":101050802,"NAMEEN":"wuyiling","NAMECN":"乌伊岭","DISTRICTEN":"yichun","DISTRICTCN":"伊春","PROVEN":"heilongjiang","PROVCN":"黑龙江","NATIONEN":"china","NATIONCN":"中国","level":3},"id":"173"},{"type":"Feature","geometry":{"type":"Point","coordinates":[129.2471,48.1196]},"properties":{"areaid":101050803,"NAMEEN":"wuying","NAMECN":"五营","DISTRICTEN":"yichun","DISTRICTCN":"伊春","PROVEN":"heilongjiang","PROVCN":"黑龙江","NATIONEN":"china","NATIONCN":"中国","level":3},"id":"174"},{"type":"Feature","geometry":{"type":"Point","coordinates":[128.047,46.9824]},"properties":{"areaid":101050804,"NAMEEN":"tieli","NAMECN":"铁力","DISTRICTEN":"yichun","DISTRICTCN":"伊春","PROVEN":"heilongjiang","PROVCN":"黑龙江","NATIONEN":"china","NATIONCN":"中国","level":3},"id":"175"},{"type":"Feature","geometry":{"type":"Point","coordinates":[130.3932,48.8882]},"properties":{"areaid":101050805,"NAMEEN":"jiayin","NAMECN":"嘉荫","DISTRICTEN":"yichun","DISTRICTCN":"伊春","PROVEN":"heilongjiang","PROVCN":"黑龙江","NATIONEN":"china","NATIONCN":"中国","level":3},"id":"176"},{"type":"Feature","geometry":{"type":"Point","coordinates":[129.2798,47.1319]},"properties":{"areaid":101050806,"NAMEEN":"nancha","NAMECN":"南岔","DISTRICTEN":"yichun","DISTRICTCN":"伊春","PROVEN":"heilongjiang","PROVCN":"黑龙江","NATIONEN":"china","NATIONCN":"中国","level":3},"id":"177"},{"type":"Feature","geometry":{"type":"Point","coordinates":[128.8221,47.85]},"properties":{"areaid":101050807,"NAMEEN":"youhao","NAMECN":"友好","DISTRICTEN":"yichun","DISTRICTCN":"伊春","PROVEN":"heilongjiang","PROVCN":"黑龙江","NATIONEN":"china","NATIONCN":"中国","level":3},"id":"178"},{"type":"Feature","geometry":{"type":"Point","coordinates":[129.288,47.4868]},"properties":{"areaid":101050808,"NAMEEN":"xilin","NAMECN":"西林","DISTRICTEN":"yichun","DISTRICTCN":"伊春","PROVEN":"heilongjiang","PROVCN":"黑龙江","NATIONEN":"china","NATIONCN":"中国","level":3},"id":"179"},{"type":"Feature","geometry":{"type":"Point","coordinates":[128.6556,47.7177]},"properties":{"areaid":101050809,"NAMEEN":"cuiluan","NAMECN":"翠峦","DISTRICTEN":"yichun","DISTRICTCN":"伊春","PROVEN":"heilongjiang","PROVCN":"黑龙江","NATIONEN":"china","NATIONCN":"中国","level":3},"id":"180"},{"type":"Feature","geometry":{"type":"Point","coordinates":[129.5275,48.287]},"properties":{"areaid":101050810,"NAMEEN":"xinqing","NAMECN":"新青","DISTRICTEN":"yichun","DISTRICTCN":"伊春","PROVEN":"heilongjiang","PROVCN":"黑龙江","NATIONEN":"china","NATIONCN":"中国","level":3},"id":"181"},{"type":"Feature","geometry":{"type":"Point","coordinates":[129.1397,47.6325]},"properties":{"areaid":101050811,"NAMEEN":"meixi","NAMECN":"美溪","DISTRICTEN":"yichun","DISTRICTCN":"伊春","PROVEN":"heilongjiang","PROVCN":"黑龙江","NATIONEN":"china","NATIONCN":"中国","level":3},"id":"182"},{"type":"Feature","geometry":{"type":"Point","coordinates":[129.426,47.4147]},"properties":{"areaid":101050812,"NAMEEN":"jinshantun","NAMECN":"金山屯","DISTRICTEN":"yichun","DISTRICTCN":"伊春","PROVEN":"heilongjiang","PROVCN":"黑龙江","NATIONEN":"china","NATIONCN":"中国","level":3},"id":"183"},{"type":"Feature","geometry":{"type":"Point","coordinates":[128.7922,47.7225]},"properties":{"areaid":101050813,"NAMEEN":"wumahe","NAMECN":"乌马河","DISTRICTEN":"yichun","DISTRICTCN":"伊春","PROVEN":"heilongjiang","PROVCN":"黑龙江","NATIONEN":"china","NATIONCN":"中国","level":3},"id":"184"},{"type":"Feature","geometry":{"type":"Point","coordinates":[129.5654,48.4538]},"properties":{"areaid":101050814,"NAMEEN":"tangwanghe","NAMECN":"汤旺河","DISTRICTEN":"yichun","DISTRICTCN":"伊春","PROVEN":"heilongjiang","PROVCN":"黑龙江","NATIONEN":"china","NATIONCN":"中国","level":3},"id":"185"},{"type":"Feature","geometry":{"type":"Point","coordinates":[129.0164,47.0252]},"properties":{"areaid":101050815,"NAMEEN":"dailing","NAMECN":"带岭","DISTRICTEN":"yichun","DISTRICTCN":"伊春","PROVEN":"heilongjiang","PROVCN":"黑龙江","NATIONEN":"china","NATIONCN":"中国","level":3},"id":"186"},{"type":"Feature","geometry":{"type":"Point","coordinates":[129.3763,48.2337]},"properties":{"areaid":101050816,"NAMEEN":"hongxing","NAMECN":"红星","DISTRICTEN":"yichun","DISTRICTCN":"伊春","PROVEN":"heilongjiang","PROVCN":"黑龙江","NATIONEN":"china","NATIONCN":"中国","level":3},"id":"187"},{"type":"Feature","geometry":{"type":"Point","coordinates":[129.021,47.9718]},"properties":{"areaid":101050817,"NAMEEN":"shangganling","NAMECN":"上甘岭","DISTRICTEN":"yichun","DISTRICTCN":"伊春","PROVEN":"heilongjiang","PROVCN":"黑龙江","NATIONEN":"china","NATIONCN":"中国","level":3},"id":"188"},{"type":"Feature","geometry":{"type":"Point","coordinates":[125.0251,46.5918]},"properties":{"areaid":101050901,"NAMEEN":"daqing","NAMECN":"大庆","DISTRICTEN":"daqing","DISTRICTCN":"大庆","PROVEN":"heilongjiang","PROVCN":"黑龙江","NATIONEN":"china","NATIONCN":"中国","level":2},"id":"189"},{"type":"Feature","geometry":{"type":"Point","coordinates":[124.8692,47.1841]},"properties":{"areaid":101050902,"NAMEEN":"lindian","NAMECN":"林甸","DISTRICTEN":"daqing","DISTRICTCN":"大庆","PROVEN":"heilongjiang","PROVCN":"黑龙江","NATIONEN":"china","NATIONCN":"中国","level":3},"id":"190"},{"type":"Feature","geometry":{"type":"Point","coordinates":[125.2639,45.7021]},"properties":{"areaid":101050903,"NAMEEN":"zhaozhou","NAMECN":"肇州","DISTRICTEN":"daqing","DISTRICTCN":"大庆","PROVEN":"heilongjiang","PROVCN":"黑龙江","NATIONEN":"china","NATIONCN":"中国","level":3},"id":"191"},{"type":"Feature","geometry":{"type":"Point","coordinates":[125.0778,45.5181]},"properties":{"areaid":101050904,"NAMEEN":"zhaoyuan","NAMECN":"肇源","DISTRICTEN":"daqing","DISTRICTCN":"大庆","PROVEN":"heilongjiang","PROVCN":"黑龙江","NATIONEN":"china","NATIONCN":"中国","level":3},"id":"192"},{"type":"Feature","geometry":{"type":"Point","coordinates":[124.4426,46.863]},"properties":{"areaid":101050905,"NAMEEN":"duerbote","NAMECN":"杜尔伯特","DISTRICTEN":"daqing","DISTRICTCN":"大庆","PROVEN":"heilongjiang","PROVCN":"黑龙江","NATIONEN":"china","NATIONCN":"中国","level":3},"id":"193"},{"type":"Feature","geometry":{"type":"Point","coordinates":[125.0809,46.5915]},"properties":{"areaid":101050906,"NAMEEN":"saertu","NAMECN":"萨尔图","DISTRICTEN":"daqing","DISTRICTCN":"大庆","PROVEN":"heilongjiang","PROVCN":"黑龙江","NATIONEN":"china","NATIONCN":"中国","level":3},"id":"194"},{"type":"Feature","geometry":{"type":"Point","coordinates":[125.1096,46.5307]},"properties":{"areaid":101050907,"NAMEEN":"longfeng","NAMECN":"龙凤","DISTRICTEN":"daqing","DISTRICTCN":"大庆","PROVEN":"heilongjiang","PROVCN":"黑龙江","NATIONEN":"china","NATIONCN":"中国","level":3},"id":"195"},{"type":"Feature","geometry":{"type":"Point","coordinates":[124.8643,46.6505]},"properties":{"areaid":101050908,"NAMEEN":"ranghulu","NAMECN":"让胡路","DISTRICTEN":"daqing","DISTRICTCN":"大庆","PROVEN":"heilongjiang","PROVCN":"黑龙江","NATIONEN":"china","NATIONCN":"中国","level":3},"id":"196"},{"type":"Feature","geometry":{"type":"Point","coordinates":[124.886,46.3996]},"properties":{"areaid":101050909,"NAMEEN":"honggang","NAMECN":"红岗","DISTRICTEN":"daqing","DISTRICTCN":"大庆","PROVEN":"heilongjiang","PROVCN":"黑龙江","NATIONEN":"china","NATIONCN":"中国","level":3},"id":"197"},{"type":"Feature","geometry":{"type":"Point","coordinates":[124.8144,46.0337]},"properties":{"areaid":101050910,"NAMEEN":"datong","NAMECN":"大同","DISTRICTEN":"daqing","DISTRICTCN":"大庆","PROVEN":"heilongjiang","PROVCN":"黑龙江","NATIONEN":"china","NATIONCN":"中国","level":3},"id":"198"},{"type":"Feature","geometry":{"type":"Point","coordinates":[130.8847,45.7955]},"properties":{"areaid":101051001,"NAMEEN":"xinxing","NAMECN":"新兴","DISTRICTEN":"qitaihe","DISTRICTCN":"七台河","PROVEN":"heilongjiang","PROVCN":"黑龙江","NATIONEN":"china","NATIONCN":"中国","level":3},"id":"199"},{"type":"Feature","geometry":{"type":"Point","coordinates":[131.0055,45.77]},"properties":{"areaid":101051002,"NAMEEN":"qitaihe","NAMECN":"七台河","DISTRICTEN":"qitaihe","DISTRICTCN":"七台河","PROVEN":"heilongjiang","PROVCN":"黑龙江","NATIONEN":"china","NATIONCN":"中国","level":2},"id":"200"},{"type":"Feature","geometry":{"type":"Point","coordinates":[130.5614,45.7489]},"properties":{"areaid":101051003,"NAMEEN":"boli","NAMECN":"勃利","DISTRICTEN":"qitaihe","DISTRICTCN":"七台河","PROVEN":"heilongjiang","PROVCN":"黑龙江","NATIONEN":"china","NATIONCN":"中国","level":3},"id":"201"},{"type":"Feature","geometry":{"type":"Point","coordinates":[131.0099,45.7658]},"properties":{"areaid":101051004,"NAMEEN":"taoshan","NAMECN":"桃山","DISTRICTEN":"qitaihe","DISTRICTCN":"七台河","PROVEN":"heilongjiang","PROVCN":"黑龙江","NATIONEN":"china","NATIONCN":"中国","level":3},"id":"202"},{"type":"Feature","geometry":{"type":"Point","coordinates":[131.0646,45.7733]},"properties":{"areaid":101051005,"NAMEEN":"qiezihe","NAMECN":"茄子河","DISTRICTEN":"qitaihe","DISTRICTCN":"七台河","PROVEN":"heilongjiang","PROVCN":"黑龙江","NATIONEN":"china","NATIONCN":"中国","level":3},"id":"203"},{"type":"Feature","geometry":{"type":"Point","coordinates":[130.965,45.2937]},"properties":{"areaid":101051101,"NAMEEN":"jixi","NAMECN":"鸡西","DISTRICTEN":"jixi","DISTRICTCN":"鸡西","PROVEN":"heilongjiang","PROVCN":"黑龙江","NATIONEN":"china","NATIONCN":"中国","level":2},"id":"204"},{"type":"Feature","geometry":{"type":"Point","coordinates":[132.9705,45.7657]},"properties":{"areaid":101051102,"NAMEEN":"hulin","NAMECN":"虎林","DISTRICTEN":"jixi","DISTRICTCN":"鸡西","PROVEN":"heilongjiang","PROVCN":"黑龙江","NATIONEN":"china","NATIONCN":"中国","level":3},"id":"205"},{"type":"Feature","geometry":{"type":"Point","coordinates":[131.8669,45.5405]},"properties":{"areaid":101051103,"NAMEEN":"mishan","NAMECN":"密山","DISTRICTEN":"jixi","DISTRICTCN":"鸡西","PROVEN":"heilongjiang","PROVCN":"黑龙江","NATIONEN":"china","NATIONCN":"中国","level":3},"id":"206"},{"type":"Feature","geometry":{"type":"Point","coordinates":[131.1393,45.2481]},"properties":{"areaid":101051104,"NAMEEN":"jidong","NAMECN":"鸡东","DISTRICTEN":"jixi","DISTRICTCN":"鸡西","PROVEN":"heilongjiang","PROVCN":"黑龙江","NATIONEN":"china","NATIONCN":"中国","level":3},"id":"207"},{"type":"Feature","geometry":{"type":"Point","coordinates":[130.9738,45.302]},"properties":{"areaid":101051105,"NAMEEN":"jiguan","NAMECN":"鸡冠","DISTRICTEN":"jixi","DISTRICTCN":"鸡西","PROVEN":"heilongjiang","PROVCN":"黑龙江","NATIONEN":"china","NATIONCN":"中国","level":3},"id":"208"},{"type":"Feature","geometry":{"type":"Point","coordinates":[130.9023,45.2102]},"properties":{"areaid":101051106,"NAMEEN":"hengshan","NAMECN":"恒山","DISTRICTEN":"jixi","DISTRICTCN":"鸡西","PROVEN":"heilongjiang","PROVCN":"黑龙江","NATIONEN":"china","NATIONCN":"中国","level":3},"id":"209"},{"type":"Feature","geometry":{"type":"Point","coordinates":[130.8407,45.3474]},"properties":{"areaid":101051107,"NAMEEN":"didao","NAMECN":"滴道","DISTRICTEN":"jixi","DISTRICTCN":"鸡西","PROVEN":"heilongjiang","PROVCN":"黑龙江","NATIONEN":"china","NATIONCN":"中国","level":3},"id":"210"},{"type":"Feature","geometry":{"type":"Point","coordinates":[130.6905,45.0914]},"properties":{"areaid":101051108,"NAMEEN":"lishu","NAMECN":"梨树","DISTRICTEN":"jixi","DISTRICTCN":"鸡西","PROVEN":"heilongjiang","PROVCN":"黑龙江","NATIONEN":"china","NATIONCN":"中国","level":3},"id":"211"},{"type":"Feature","geometry":{"type":"Point","coordinates":[131.0013,45.3375]},"properties":{"areaid":101051109,"NAMEEN":"chengzihe","NAMECN":"城子河","DISTRICTEN":"jixi","DISTRICTCN":"鸡西","PROVEN":"heilongjiang","PROVCN":"黑龙江","NATIONEN":"china","NATIONCN":"中国","level":3},"id":"212"},{"type":"Feature","geometry":{"type":"Point","coordinates":[130.4734,45.2079]},"properties":{"areaid":101051110,"NAMEEN":"mashan","NAMECN":"麻山","DISTRICTEN":"jixi","DISTRICTCN":"鸡西","PROVEN":"heilongjiang","PROVCN":"黑龙江","NATIONEN":"china","NATIONCN":"中国","level":3},"id":"213"},{"type":"Feature","geometry":{"type":"Point","coordinates":[130.2696,47.328]},"properties":{"areaid":101051201,"NAMEEN":"hegang","NAMECN":"鹤岗","DISTRICTEN":"hegang","DISTRICTCN":"鹤岗","PROVEN":"heilongjiang","PROVCN":"黑龙江","NATIONEN":"china","NATIONCN":"中国","level":2},"id":"214"},{"type":"Feature","geometry":{"type":"Point","coordinates":[131.8526,47.288]},"properties":{"areaid":101051202,"NAMEEN":"suibin","NAMECN":"绥滨","DISTRICTEN":"hegang","DISTRICTCN":"鹤岗","PROVEN":"heilongjiang","PROVCN":"黑龙江","NATIONEN":"china","NATIONCN":"中国","level":3},"id":"215"},{"type":"Feature","geometry":{"type":"Point","coordinates":[130.8256,47.5773]},"properties":{"areaid":101051203,"NAMEEN":"luobei","NAMECN":"萝北","DISTRICTEN":"hegang","DISTRICTCN":"鹤岗","PROVEN":"heilongjiang","PROVCN":"黑龙江","NATIONEN":"china","NATIONCN":"中国","level":3},"id":"216"},{"type":"Feature","geometry":{"type":"Point","coordinates":[130.2872,47.3403]},"properties":{"areaid":101051204,"NAMEEN":"xiangyang","NAMECN":"向阳","DISTRICTEN":"hegang","DISTRICTCN":"鹤岗","PROVEN":"heilongjiang","PROVCN":"黑龙江","NATIONEN":"china","NATIONCN":"中国","level":3},"id":"217"},{"type":"Feature","geometry":{"type":"Point","coordinates":[130.2666,47.3173]},"properties":{"areaid":101051205,"NAMEEN":"gongnong","NAMECN":"工农","DISTRICTEN":"hegang","DISTRICTCN":"鹤岗","PROVEN":"heilongjiang","PROVCN":"黑龙江","NATIONEN":"china","NATIONCN":"中国","level":3},"id":"218"},{"type":"Feature","geometry":{"type":"Point","coordinates":[130.28,47.3137]},"properties":{"areaid":101051206,"NAMEEN":"nanshan","NAMECN":"南山","DISTRICTEN":"hegang","DISTRICTCN":"鹤岗","PROVEN":"heilongjiang","PROVCN":"黑龙江","NATIONEN":"china","NATIONCN":"中国","level":3},"id":"219"},{"type":"Feature","geometry":{"type":"Point","coordinates":[130.2296,47.2533]},"properties":{"areaid":101051207,"NAMEEN":"xingan","NAMECN":"兴安","DISTRICTEN":"hegang","DISTRICTCN":"鹤岗","PROVEN":"heilongjiang","PROVCN":"黑龙江","NATIONEN":"china","NATIONCN":"中国","level":3},"id":"220"},{"type":"Feature","geometry":{"type":"Point","coordinates":[130.3108,47.3369]},"properties":{"areaid":101051208,"NAMEEN":"dongshan","NAMECN":"东山","DISTRICTEN":"hegang","DISTRICTCN":"鹤岗","PROVEN":"heilongjiang","PROVCN":"黑龙江","NATIONEN":"china","NATIONCN":"中国","level":3},"id":"221"},{"type":"Feature","geometry":{"type":"Point","coordinates":[130.3103,47.3722]},"properties":{"areaid":101051209,"NAMEEN":"xingshan","NAMECN":"兴山","DISTRICTEN":"hegang","DISTRICTCN":"鹤岗","PROVEN":"heilongjiang","PROVCN":"黑龙江","NATIONEN":"china","NATIONCN":"中国","level":3},"id":"222"},{"type":"Feature","geometry":{"type":"Point","coordinates":[131.1545,46.6388]},"properties":{"areaid":101051301,"NAMEEN":"shuangyashan","NAMECN":"双鸭山","DISTRICTEN":"shuangyashan","DISTRICTCN":"双鸭山","PROVEN":"heilongjiang","PROVCN":"黑龙江","NATIONEN":"china","NATIONCN":"中国","level":2},"id":"223"},{"type":"Feature","geometry":{"type":"Point","coordinates":[131.1286,46.7152]},"properties":{"areaid":101051302,"NAMEEN":"jixian","NAMECN":"集贤","DISTRICTEN":"shuangyashan","DISTRICTCN":"双鸭山","PROVEN":"heilongjiang","PROVCN":"黑龙江","NATIONEN":"china","NATIONCN":"中国","level":3},"id":"224"},{"type":"Feature","geometry":{"type":"Point","coordinates":[132.2055,46.3275]},"properties":{"areaid":101051303,"NAMEEN":"baoqing","NAMECN":"宝清","DISTRICTEN":"shuangyashan","DISTRICTCN":"双鸭山","PROVEN":"heilongjiang","PROVCN":"黑龙江","NATIONEN":"china","NATIONCN":"中国","level":3},"id":"225"},{"type":"Feature","geometry":{"type":"Point","coordinates":[134.0042,46.7978]},"properties":{"areaid":101051304,"NAMEEN":"raohe","NAMECN":"饶河","DISTRICTEN":"shuangyashan","DISTRICTCN":"双鸭山","PROVEN":"heilongjiang","PROVCN":"黑龙江","NATIONEN":"china","NATIONCN":"中国","level":3},"id":"226"},{"type":"Feature","geometry":{"type":"Point","coordinates":[131.8025,46.7774]},"properties":{"areaid":101051305,"NAMEEN":"youyi","NAMECN":"友谊","DISTRICTEN":"shuangyashan","DISTRICTCN":"双鸭山","PROVEN":"heilongjiang","PROVCN":"黑龙江","NATIONEN":"china","NATIONCN":"中国","level":3},"id":"227"},{"type":"Feature","geometry":{"type":"Point","coordinates":[131.1501,46.644]},"properties":{"areaid":101051306,"NAMEEN":"jianshan","NAMECN":"尖山","DISTRICTEN":"shuangyashan","DISTRICTCN":"双鸭山","PROVEN":"heilongjiang","PROVCN":"黑龙江","NATIONEN":"china","NATIONCN":"中国","level":3},"id":"228"},{"type":"Feature","geometry":{"type":"Point","coordinates":[131.1341,46.5699]},"properties":{"areaid":101051307,"NAMEEN":"lingdong","NAMECN":"岭东","DISTRICTEN":"shuangyashan","DISTRICTCN":"双鸭山","PROVEN":"heilongjiang","PROVCN":"黑龙江","NATIONEN":"china","NATIONCN":"中国","level":3},"id":"229"},{"type":"Feature","geometry":{"type":"Point","coordinates":[131.3279,46.5914]},"properties":{"areaid":101051308,"NAMEEN":"sifangtai","NAMECN":"四方台","DISTRICTEN":"shuangyashan","DISTRICTCN":"双鸭山","PROVEN":"heilongjiang","PROVCN":"黑龙江","NATIONEN":"china","NATIONCN":"中国","level":3},"id":"230"},{"type":"Feature","geometry":{"type":"Point","coordinates":[131.401,46.5728]},"properties":{"areaid":101051309,"NAMEEN":"baoshan","NAMECN":"宝山","DISTRICTEN":"shuangyashan","DISTRICTCN":"双鸭山","PROVEN":"heilongjiang","PROVCN":"黑龙江","NATIONEN":"china","NATIONCN":"中国","level":3},"id":"231"},{"type":"Feature","geometry":{"type":"Point","coordinates":[125.3083,43.8843]},"properties":{"areaid":101060101,"NAMEEN":"changchun","NAMECN":"长春","DISTRICTEN":"changchun","DISTRICTCN":"长春","PROVEN":"jilin","PROVCN":"吉林","NATIONEN":"china","NATIONCN":"中国","level":1},"id":"232"},{"type":"Feature","geometry":{"type":"Point","coordinates":[125.1783,44.4306]},"properties":{"areaid":101060102,"NAMEEN":"nongan","NAMECN":"农安","DISTRICTEN":"changchun","DISTRICTCN":"长春","PROVEN":"jilin","PROVCN":"吉林","NATIONEN":"china","NATIONCN":"中国","level":3},"id":"233"},{"type":"Feature","geometry":{"type":"Point","coordinates":[125.6991,44.5353]},"properties":{"areaid":101060103,"NAMEEN":"dehui","NAMECN":"德惠","DISTRICTEN":"changchun","DISTRICTCN":"长春","PROVEN":"jilin","PROVCN":"吉林","NATIONEN":"china","NATIONCN":"中国","level":3},"id":"234"},{"type":"Feature","geometry":{"type":"Point","coordinates":[125.8334,44.1496]},"properties":{"areaid":101060104,"NAMEEN":"jiutai","NAMECN":"九台","DISTRICTEN":"changchun","DISTRICTCN":"长春","PROVEN":"jilin","PROVCN":"吉林","NATIONEN":"china","NATIONCN":"中国","level":3},"id":"235"},{"type":"Feature","geometry":{"type":"Point","coordinates":[126.5511,44.8234]},"properties":{"areaid":101060105,"NAMEEN":"yushu","NAMECN":"榆树","DISTRICTEN":"changchun","DISTRICTCN":"长春","PROVEN":"jilin","PROVCN":"吉林","NATIONEN":"china","NATIONCN":"中国","level":3},"id":"236"},{"type":"Feature","geometry":{"type":"Point","coordinates":[125.6503,43.5258]},"properties":{"areaid":101060106,"NAMEEN":"shuangyang","NAMECN":"双阳","DISTRICTEN":"changchun","DISTRICTCN":"长春","PROVEN":"jilin","PROVCN":"吉林","NATIONEN":"china","NATIONCN":"中国","level":3},"id":"237"},{"type":"Feature","geometry":{"type":"Point","coordinates":[125.3678,43.8625]},"properties":{"areaid":101060107,"NAMEEN":"erdao","NAMECN":"二道","DISTRICTEN":"changchun","DISTRICTCN":"长春","PROVEN":"jilin","PROVCN":"吉林","NATIONEN":"china","NATIONCN":"中国","level":3},"id":"238"},{"type":"Feature","geometry":{"type":"Point","coordinates":[125.3443,43.8618]},"properties":{"areaid":101060108,"NAMEEN":"nanguan","NAMECN":"南关","DISTRICTEN":"changchun","DISTRICTCN":"长春","PROVEN":"jilin","PROVCN":"吉林","NATIONEN":"china","NATIONCN":"中国","level":3},"id":"239"},{"type":"Feature","geometry":{"type":"Point","coordinates":[125.3197,43.8994]},"properties":{"areaid":101060109,"NAMEEN":"kuancheng","NAMECN":"宽城","DISTRICTEN":"changchun","DISTRICTCN":"长春","PROVEN":"jilin","PROVCN":"吉林","NATIONEN":"china","NATIONCN":"中国","level":3},"id":"240"},{"type":"Feature","geometry":{"type":"Point","coordinates":[125.283,43.8306]},"properties":{"areaid":101060110,"NAMEEN":"chaoyang","NAMECN":"朝阳","DISTRICTEN":"changchun","DISTRICTCN":"长春","PROVEN":"jilin","PROVCN":"吉林","NATIONEN":"china","NATIONCN":"中国","level":3},"id":"241"},{"type":"Feature","geometry":{"type":"Point","coordinates":[125.2495,43.8782]},"properties":{"areaid":101060111,"NAMEEN":"lvyuan","NAMECN":"绿园","DISTRICTEN":"changchun","DISTRICTCN":"长春","PROVEN":"jilin","PROVCN":"吉林","NATIONEN":"china","NATIONCN":"中国","level":3},"id":"242"},{"type":"Feature","geometry":{"type":"Point","coordinates":[126.5618,43.8498]},"properties":{"areaid":101060201,"NAMEEN":"jilin","NAMECN":"吉林","DISTRICTEN":"jilin","DISTRICTCN":"吉林","PROVEN":"jilin","PROVCN":"吉林","NATIONEN":"china","NATIONCN":"中国","level":2},"id":"243"},{"type":"Feature","geometry":{"type":"Point","coordinates":[126.9406,44.4112]},"properties":{"areaid":101060202,"NAMEEN":"shulan","NAMECN":"舒兰","DISTRICTEN":"jilin","DISTRICTCN":"吉林","PROVEN":"jilin","PROVCN":"吉林","NATIONEN":"china","NATIONCN":"中国","level":3},"id":"244"},{"type":"Feature","geometry":{"type":"Point","coordinates":[126.4927,43.669]},"properties":{"areaid":101060203,"NAMEEN":"yongji","NAMECN":"永吉","DISTRICTEN":"jilin","DISTRICTCN":"吉林","PROVEN":"jilin","PROVCN":"吉林","NATIONEN":"china","NATIONCN":"中国","level":3},"id":"245"},{"type":"Feature","geometry":{"type":"Point","coordinates":[127.3381,43.7213]},"properties":{"areaid":101060204,"NAMEEN":"jiaohe","NAMECN":"蛟河","DISTRICTEN":"jilin","DISTRICTCN":"吉林","PROVEN":"jilin","PROVCN":"吉林","NATIONEN":"china","NATIONCN":"中国","level":3},"id":"246"},{"type":"Feature","geometry":{"type":"Point","coordinates":[126.051,42.9359]},"properties":{"areaid":101060205,"NAMEEN":"panshi","NAMECN":"磐石","DISTRICTEN":"jilin","DISTRICTCN":"吉林","PROVEN":"jilin","PROVCN":"吉林","NATIONEN":"china","NATIONCN":"中国","level":3},"id":"247"},{"type":"Feature","geometry":{"type":"Point","coordinates":[126.7424,42.9678]},"properties":{"areaid":101060206,"NAMEEN":"huadian","NAMECN":"桦甸","DISTRICTEN":"jilin","DISTRICTCN":"吉林","PROVEN":"jilin","PROVCN":"吉林","NATIONEN":"china","NATIONCN":"中国","level":3},"id":"248"},{"type":"Feature","geometry":{"type":"Point","coordinates":[126.5687,43.8797]},"properties":{"areaid":101060207,"NAMEEN":"changyi","NAMECN":"昌邑","DISTRICTEN":"jilin","DISTRICTCN":"吉林","PROVEN":"jilin","PROVCN":"吉林","NATIONEN":"china","NATIONCN":"中国","level":3},"id":"249"},{"type":"Feature","geometry":{"type":"Point","coordinates":[126.5565,43.9084]},"properties":{"areaid":101060208,"NAMEEN":"longtan","NAMECN":"龙潭","DISTRICTEN":"jilin","DISTRICTCN":"吉林","PROVEN":"jilin","PROVCN":"吉林","NATIONEN":"china","NATIONCN":"中国","level":3},"id":"250"},{"type":"Feature","geometry":{"type":"Point","coordinates":[126.5356,43.8314]},"properties":{"areaid":101060209,"NAMEEN":"chuanying","NAMECN":"船营","DISTRICTEN":"jilin","DISTRICTCN":"吉林","PROVEN":"jilin","PROVCN":"吉林","NATIONEN":"china","NATIONCN":"中国","level":3},"id":"251"},{"type":"Feature","geometry":{"type":"Point","coordinates":[126.5567,43.8202]},"properties":{"areaid":101060210,"NAMEEN":"fengman","NAMECN":"丰满","DISTRICTEN":"jilin","DISTRICTCN":"吉林","PROVEN":"jilin","PROVCN":"吉林","NATIONEN":"china","NATIONCN":"中国","level":3},"id":"252"},{"type":"Feature","geometry":{"type":"Point","coordinates":[129.5067,42.9044]},"properties":{"areaid":101060301,"NAMEEN":"yanji","NAMECN":"延吉","DISTRICTEN":"yanbian","DISTRICTCN":"延边","PROVEN":"jilin","PROVCN":"吉林","NATIONEN":"china","NATIONCN":"中国","level":3},"id":"253"},{"type":"Feature","geometry":{"type":"Point","coordinates":[128.2258,43.37]},"properties":{"areaid":101060302,"NAMEEN":"dunhua","NAMECN":"敦化","DISTRICTEN":"yanbian","DISTRICTCN":"延边","PROVEN":"jilin","PROVCN":"吉林","NATIONEN":"china","NATIONCN":"中国","level":3},"id":"254"},{"type":"Feature","geometry":{"type":"Point","coordinates":[128.8931,43.1094]},"properties":{"areaid":101060303,"NAMEEN":"antu","NAMECN":"安图","DISTRICTEN":"yanbian","DISTRICTCN":"延边","PROVEN":"jilin","PROVCN":"吉林","NATIONEN":"china","NATIONCN":"中国","level":3},"id":"255"},{"type":"Feature","geometry":{"type":"Point","coordinates":[129.753,43.3145]},"properties":{"areaid":101060304,"NAMEEN":"wangqing","NAMECN":"汪清","DISTRICTEN":"yanbian","DISTRICTCN":"延边","PROVEN":"jilin","PROVCN":"吉林","NATIONEN":"china","NATIONCN":"中国","level":3},"id":"256"},{"type":"Feature","geometry":{"type":"Point","coordinates":[129.0043,42.5436]},"properties":{"areaid":101060305,"NAMEEN":"helong","NAMECN":"和龙","DISTRICTEN":"yanbian","DISTRICTCN":"延边","PROVEN":"jilin","PROVCN":"吉林","NATIONEN":"china","NATIONCN":"中国","level":3},"id":"257"},{"type":"Feature","geometry":{"type":"Point","coordinates":[129.5067,42.9044]},"properties":{"areaid":101060306,"NAMEEN":"yanbian","NAMECN":"延边","DISTRICTEN":"yanbian","DISTRICTCN":"延边","PROVEN":"jilin","PROVCN":"吉林","NATIONEN":"china","NATIONCN":"中国","level":2},"id":"258"},{"type":"Feature","geometry":{"type":"Point","coordinates":[129.4187,42.7655]},"properties":{"areaid":101060307,"NAMEEN":"longjing","NAMECN":"龙井","DISTRICTEN":"yanbian","DISTRICTCN":"延边","PROVEN":"jilin","PROVCN":"吉林","NATIONEN":"china","NATIONCN":"中国","level":3},"id":"259"},{"type":"Feature","geometry":{"type":"Point","coordinates":[130.3586,42.8598]},"properties":{"areaid":101060308,"NAMEEN":"hunchun","NAMECN":"珲春","DISTRICTEN":"yanbian","DISTRICTCN":"延边","PROVEN":"jilin","PROVCN":"吉林","NATIONEN":"china","NATIONCN":"中国","level":3},"id":"260"},{"type":"Feature","geometry":{"type":"Point","coordinates":[129.837,42.9656]},"properties":{"areaid":101060309,"NAMEEN":"tumen","NAMECN":"图们","DISTRICTEN":"yanbian","DISTRICTCN":"延边","PROVEN":"jilin","PROVCN":"吉林","NATIONEN":"china","NATIONCN":"中国","level":3},"id":"261"},{"type":"Feature","geometry":{"type":"Point","coordinates":[124.3438,43.1634]},"properties":{"areaid":101060401,"NAMEEN":"siping","NAMECN":"四平","DISTRICTEN":"siping","DISTRICTCN":"四平","PROVEN":"jilin","PROVCN":"吉林","NATIONEN":"china","NATIONCN":"中国","level":2},"id":"262"},{"type":"Feature","geometry":{"type":"Point","coordinates":[123.4967,43.516]},"properties":{"areaid":101060402,"NAMEEN":"shuangliao","NAMECN":"双辽","DISTRICTEN":"siping","DISTRICTCN":"四平","PROVEN":"jilin","PROVCN":"吉林","NATIONEN":"china","NATIONCN":"中国","level":3},"id":"263"},{"type":"Feature","geometry":{"type":"Point","coordinates":[124.3294,43.3046]},"properties":{"areaid":101060403,"NAMEEN":"lishu","NAMECN":"梨树","DISTRICTEN":"siping","DISTRICTCN":"四平","PROVEN":"jilin","PROVCN":"吉林","NATIONEN":"china","NATIONCN":"中国","level":3},"id":"264"},{"type":"Feature","geometry":{"type":"Point","coordinates":[124.8166,43.5022]},"properties":{"areaid":101060404,"NAMEEN":"gongzhuling","NAMECN":"公主岭","DISTRICTEN":"siping","DISTRICTCN":"四平","PROVEN":"jilin","PROVCN":"吉林","NATIONEN":"china","NATIONCN":"中国","level":3},"id":"265"},{"type":"Feature","geometry":{"type":"Point","coordinates":[125.2987,43.3423]},"properties":{"areaid":101060405,"NAMEEN":"yitong","NAMECN":"伊通","DISTRICTEN":"siping","DISTRICTCN":"四平","PROVEN":"jilin","PROVCN":"吉林","NATIONEN":"china","NATIONCN":"中国","level":3},"id":"266"},{"type":"Feature","geometry":{"type":"Point","coordinates":[124.34,43.1439]},"properties":{"areaid":101060406,"NAMEEN":"tiexi","NAMECN":"铁西","DISTRICTEN":"siping","DISTRICTCN":"四平","PROVEN":"jilin","PROVCN":"吉林","NATIONEN":"china","NATIONCN":"中国","level":3},"id":"267"},{"type":"Feature","geometry":{"type":"Point","coordinates":[124.403,43.1595]},"properties":{"areaid":101060407,"NAMEEN":"tiedong","NAMECN":"铁东","DISTRICTEN":"siping","DISTRICTCN":"四平","PROVEN":"jilin","PROVCN":"吉林","NATIONEN":"china","NATIONCN":"中国","level":3},"id":"268"},{"type":"Feature","geometry":{"type":"Point","coordinates":[125.7534,41.677]},"properties":{"areaid":101060501,"NAMEEN":"tonghua","NAMECN":"通化","DISTRICTEN":"tonghua","DISTRICTCN":"通化","PROVEN":"jilin","PROVCN":"吉林","NATIONEN":"china","NATIONCN":"中国","level":3},"id":"269"},{"type":"Feature","geometry":{"type":"Point","coordinates":[125.678,42.5279]},"properties":{"areaid":101060502,"NAMEEN":"meihekou","NAMECN":"梅河口","DISTRICTEN":"tonghua","DISTRICTCN":"通化","PROVEN":"jilin","PROVCN":"吉林","NATIONEN":"china","NATIONCN":"中国","level":3},"id":"270"},{"type":"Feature","geometry":{"type":"Point","coordinates":[125.7386,42.2823]},"properties":{"areaid":101060503,"NAMEEN":"liuhe","NAMECN":"柳河","DISTRICTEN":"tonghua","DISTRICTCN":"通化","PROVEN":"jilin","PROVCN":"吉林","NATIONEN":"china","NATIONCN":"中国","level":3},"id":"271"},{"type":"Feature","geometry":{"type":"Point","coordinates":[126.0405,42.6825]},"properties":{"areaid":101060504,"NAMEEN":"huinan","NAMECN":"辉南","DISTRICTEN":"tonghua","DISTRICTCN":"通化","PROVEN":"jilin","PROVCN":"吉林","NATIONEN":"china","NATIONCN":"中国","level":3},"id":"272"},{"type":"Feature","geometry":{"type":"Point","coordinates":[126.1784,41.128]},"properties":{"areaid":101060505,"NAMEEN":"jian","NAMECN":"集安","DISTRICTEN":"tonghua","DISTRICTCN":"通化","PROVEN":"jilin","PROVCN":"吉林","NATIONEN":"china","NATIONCN":"中国","level":3},"id":"273"},{"type":"Feature","geometry":{"type":"Point","coordinates":[125.7534,41.677]},"properties":{"areaid":101060506,"NAMEEN":"tonghuaxian","NAMECN":"通化县","DISTRICTEN":"tonghua","DISTRICTCN":"通化","PROVEN":"jilin","PROVCN":"吉林","NATIONEN":"china","NATIONCN":"中国","level":3},"id":"274"},{"type":"Feature","geometry":{"type":"Point","coordinates":[125.9493,41.7263]},"properties":{"areaid":101060507,"NAMEEN":"dongchang","NAMECN":"东昌","DISTRICTEN":"tonghua","DISTRICTCN":"通化","PROVEN":"jilin","PROVCN":"吉林","NATIONEN":"china","NATIONCN":"中国","level":3},"id":"275"},{"type":"Feature","geometry":{"type":"Point","coordinates":[126.0367,41.7717]},"properties":{"areaid":101060508,"NAMEEN":"erdaojiang","NAMECN":"二道江","DISTRICTEN":"tonghua","DISTRICTCN":"通化","PROVEN":"jilin","PROVCN":"吉林","NATIONEN":"china","NATIONCN":"中国","level":3},"id":"276"},{"type":"Feature","geometry":{"type":"Point","coordinates":[122.8356,45.6159]},"properties":{"areaid":101060601,"NAMEEN":"baicheng","NAMECN":"白城","DISTRICTEN":"baicheng","DISTRICTCN":"白城","PROVEN":"jilin","PROVCN":"吉林","NATIONEN":"china","NATIONCN":"中国","level":2},"id":"277"},{"type":"Feature","geometry":{"type":"Point","coordinates":[122.7818,45.3329]},"properties":{"areaid":101060602,"NAMEEN":"taonan","NAMECN":"洮南","DISTRICTEN":"baicheng","DISTRICTCN":"白城","PROVEN":"jilin","PROVCN":"吉林","NATIONEN":"china","NATIONCN":"中国","level":3},"id":"278"},{"type":"Feature","geometry":{"type":"Point","coordinates":[124.2863,45.505]},"properties":{"areaid":101060603,"NAMEEN":"daan","NAMECN":"大安","DISTRICTEN":"baicheng","DISTRICTCN":"白城","PROVEN":"jilin","PROVCN":"吉林","NATIONEN":"china","NATIONCN":"中国","level":3},"id":"279"},{"type":"Feature","geometry":{"type":"Point","coordinates":[123.193,45.8453]},"properties":{"areaid":101060604,"NAMEEN":"zhenlai","NAMECN":"镇赉","DISTRICTEN":"baicheng","DISTRICTCN":"白城","PROVEN":"jilin","PROVCN":"吉林","NATIONEN":"china","NATIONCN":"中国","level":3},"id":"280"},{"type":"Feature","geometry":{"type":"Point","coordinates":[123.0819,44.8107]},"properties":{"areaid":101060605,"NAMEEN":"tongyu","NAMECN":"通榆","DISTRICTEN":"baicheng","DISTRICTCN":"白城","PROVEN":"jilin","PROVCN":"吉林","NATIONEN":"china","NATIONCN":"中国","level":3},"id":"281"},{"type":"Feature","geometry":{"type":"Point","coordinates":[122.8452,45.6197]},"properties":{"areaid":101060606,"NAMEEN":"taobei","NAMECN":"洮北","DISTRICTEN":"baicheng","DISTRICTCN":"白城","PROVEN":"jilin","PROVCN":"吉林","NATIONEN":"china","NATIONCN":"中国","level":3},"id":"282"},{"type":"Feature","geometry":{"type":"Point","coordinates":[125.1402,42.9007]},"properties":{"areaid":101060701,"NAMEEN":"liaoyuan","NAMECN":"辽源","DISTRICTEN":"liaoyuan","DISTRICTCN":"辽源","PROVEN":"jilin","PROVCN":"吉林","NATIONEN":"china","NATIONCN":"中国","level":2},"id":"283"},{"type":"Feature","geometry":{"type":"Point","coordinates":[125.5257,42.6755]},"properties":{"areaid":101060702,"NAMEEN":"dongfeng","NAMECN":"东丰","DISTRICTEN":"liaoyuan","DISTRICTCN":"辽源","PROVEN":"jilin","PROVCN":"吉林","NATIONEN":"china","NATIONCN":"中国","level":3},"id":"284"},{"type":"Feature","geometry":{"type":"Point","coordinates":[124.9876,42.9238]},"properties":{"areaid":101060703,"NAMEEN":"dongliao","NAMECN":"东辽","DISTRICTEN":"liaoyuan","DISTRICTCN":"辽源","PROVEN":"jilin","PROVCN":"吉林","NATIONEN":"china","NATIONCN":"中国","level":3},"id":"285"},{"type":"Feature","geometry":{"type":"Point","coordinates":[125.1405,42.9021]},"properties":{"areaid":101060704,"NAMEEN":"longshan","NAMECN":"龙山","DISTRICTEN":"liaoyuan","DISTRICTCN":"辽源","PROVEN":"jilin","PROVCN":"吉林","NATIONEN":"china","NATIONCN":"中国","level":3},"id":"286"},{"type":"Feature","geometry":{"type":"Point","coordinates":[125.143,42.9245]},"properties":{"areaid":101060705,"NAMEEN":"xian","NAMECN":"西安","DISTRICTEN":"liaoyuan","DISTRICTCN":"辽源","PROVEN":"jilin","PROVCN":"吉林","NATIONEN":"china","NATIONCN":"中国","level":3},"id":"287"},{"type":"Feature","geometry":{"type":"Point","coordinates":[124.8345,45.1504]},"properties":{"areaid":101060801,"NAMEEN":"songyuan","NAMECN":"松原","DISTRICTEN":"songyuan","DISTRICTCN":"松原","PROVEN":"jilin","PROVCN":"吉林","NATIONEN":"china","NATIONCN":"中国","level":2},"id":"288"},{"type":"Feature","geometry":{"type":"Point","coordinates":[124.0217,45.0025]},"properties":{"areaid":101060802,"NAMEEN":"qianan","NAMECN":"乾安","DISTRICTEN":"songyuan","DISTRICTCN":"松原","PROVEN":"jilin","PROVCN":"吉林","NATIONEN":"china","NATIONCN":"中国","level":3},"id":"289"},{"type":"Feature","geometry":{"type":"Point","coordinates":[124.8172,45.1153]},"properties":{"areaid":101060803,"NAMEEN":"qianguo","NAMECN":"前郭","DISTRICTEN":"songyuan","DISTRICTCN":"松原","PROVEN":"jilin","PROVCN":"吉林","NATIONEN":"china","NATIONCN":"中国","level":3},"id":"290"},{"type":"Feature","geometry":{"type":"Point","coordinates":[123.976,44.275]},"properties":{"areaid":101060804,"NAMEEN":"changling","NAMECN":"长岭","DISTRICTEN":"songyuan","DISTRICTCN":"松原","PROVEN":"jilin","PROVCN":"吉林","NATIONEN":"china","NATIONCN":"中国","level":3},"id":"291"},{"type":"Feature","geometry":{"type":"Point","coordinates":[126.0455,44.9852]},"properties":{"areaid":101060805,"NAMEEN":"fuyu","NAMECN":"扶余","DISTRICTEN":"songyuan","DISTRICTCN":"松原","PROVEN":"jilin","PROVCN":"吉林","NATIONEN":"china","NATIONCN":"中国","level":3},"id":"292"},{"type":"Feature","geometry":{"type":"Point","coordinates":[124.8192,45.1747]},"properties":{"areaid":101060806,"NAMEEN":"ningjiang","NAMECN":"宁江","DISTRICTEN":"songyuan","DISTRICTCN":"松原","PROVEN":"jilin","PROVCN":"吉林","NATIONEN":"china","NATIONCN":"中国","level":3},"id":"293"},{"type":"Feature","geometry":{"type":"Point","coordinates":[126.4375,41.9375]},"properties":{"areaid":101060901,"NAMEEN":"baishan","NAMECN":"白山","DISTRICTEN":"baishan","DISTRICTCN":"白山","PROVEN":"jilin","PROVCN":"吉林","NATIONEN":"china","NATIONCN":"中国","level":2},"id":"294"},{"type":"Feature","geometry":{"type":"Point","coordinates":[126.8074,42.3864]},"properties":{"areaid":101060902,"NAMEEN":"jingyu","NAMECN":"靖宇","DISTRICTEN":"baishan","DISTRICTCN":"白山","PROVEN":"jilin","PROVCN":"吉林","NATIONEN":"china","NATIONCN":"中国","level":3},"id":"295"},{"type":"Feature","geometry":{"type":"Point","coordinates":[126.9121,41.8093]},"properties":{"areaid":101060903,"NAMEEN":"linjiang","NAMECN":"临江","DISTRICTEN":"baishan","DISTRICTCN":"白山","PROVEN":"jilin","PROVCN":"吉林","NATIONEN":"china","NATIONCN":"中国","level":3},"id":"296"},{"type":"Feature","geometry":{"type":"Point","coordinates":[128.1946,41.4176]},"properties":{"areaid":101060905,"NAMEEN":"changbai","NAMECN":"长白","DISTRICTEN":"baishan","DISTRICTCN":"白山","PROVEN":"jilin","PROVCN":"吉林","NATIONEN":"china","NATIONCN":"中国","level":3},"id":"297"},{"type":"Feature","geometry":{"type":"Point","coordinates":[127.2744,42.3397]},"properties":{"areaid":101060906,"NAMEEN":"fusong","NAMECN":"抚松","DISTRICTEN":"baishan","DISTRICTCN":"白山","PROVEN":"jilin","PROVCN":"吉林","NATIONEN":"china","NATIONCN":"中国","level":3},"id":"298"},{"type":"Feature","geometry":{"type":"Point","coordinates":[126.5855,42.0545]},"properties":{"areaid":101060907,"NAMEEN":"jiangyuan","NAMECN":"江源","DISTRICTEN":"baishan","DISTRICTCN":"白山","PROVEN":"jilin","PROVCN":"吉林","NATIONEN":"china","NATIONCN":"中国","level":3},"id":"299"},{"type":"Feature","geometry":{"type":"Point","coordinates":[126.4125,41.936]},"properties":{"areaid":101060908,"NAMEEN":"hunjiang","NAMECN":"浑江","DISTRICTEN":"baishan","DISTRICTCN":"白山","PROVEN":"jilin","PROVCN":"吉林","NATIONEN":"china","NATIONCN":"中国","level":3},"id":"300"},{"type":"Feature","geometry":{"type":"Point","coordinates":[123.4258,41.8038]},"properties":{"areaid":101070101,"NAMEEN":"shenyang","NAMECN":"沈阳","DISTRICTEN":"shenyang","DISTRICTCN":"沈阳","PROVEN":"liaoning","PROVCN":"辽宁","NATIONEN":"china","NATIONCN":"中国","level":1},"id":"301"},{"type":"Feature","geometry":{"type":"Point","coordinates":[123.4436,41.7124]},"properties":{"areaid":101070102,"NAMEEN":"hunnan","NAMECN":"浑南","DISTRICTEN":"shenyang","DISTRICTCN":"沈阳","PROVEN":"liaoning","PROVCN":"辽宁","NATIONEN":"china","NATIONCN":"中国","level":3},"id":"302"},{"type":"Feature","geometry":{"type":"Point","coordinates":[122.7265,41.5095]},"properties":{"areaid":101070103,"NAMEEN":"liaozhong","NAMECN":"辽中","DISTRICTEN":"shenyang","DISTRICTCN":"沈阳","PROVEN":"liaoning","PROVCN":"辽宁","NATIONEN":"china","NATIONCN":"中国","level":3},"id":"303"},{"type":"Feature","geometry":{"type":"Point","coordinates":[123.3473,42.7474]},"properties":{"areaid":101070104,"NAMEEN":"kangping","NAMECN":"康平","DISTRICTEN":"shenyang","DISTRICTCN":"沈阳","PROVEN":"liaoning","PROVCN":"辽宁","NATIONEN":"china","NATIONCN":"中国","level":3},"id":"304"},{"type":"Feature","geometry":{"type":"Point","coordinates":[123.4022,42.5016]},"properties":{"areaid":101070105,"NAMEEN":"faku","NAMECN":"法库","DISTRICTEN":"shenyang","DISTRICTCN":"沈阳","PROVEN":"liaoning","PROVCN":"辽宁","NATIONEN":"china","NATIONCN":"中国","level":3},"id":"305"},{"type":"Feature","geometry":{"type":"Point","coordinates":[122.8224,41.9952]},"properties":{"areaid":101070106,"NAMEEN":"xinmin","NAMECN":"新民","DISTRICTEN":"shenyang","DISTRICTCN":"沈阳","PROVEN":"liaoning","PROVCN":"辽宁","NATIONEN":"china","NATIONCN":"中国","level":3},"id":"306"},{"type":"Feature","geometry":{"type":"Point","coordinates":[123.4145,41.7872]},"properties":{"areaid":101070107,"NAMEEN":"heping","NAMECN":"和平","DISTRICTEN":"shenyang","DISTRICTCN":"沈阳","PROVEN":"liaoning","PROVCN":"辽宁","NATIONEN":"china","NATIONCN":"中国","level":3},"id":"307"},{"type":"Feature","geometry":{"type":"Point","coordinates":[123.4524,41.7938]},"properties":{"areaid":101070108,"NAMEEN":"shenhe","NAMECN":"沈河","DISTRICTEN":"shenyang","DISTRICTCN":"沈阳","PROVEN":"liaoning","PROVCN":"辽宁","NATIONEN":"china","NATIONCN":"中国","level":3},"id":"308"},{"type":"Feature","geometry":{"type":"Point","coordinates":[123.4638,41.8028]},"properties":{"areaid":101070109,"NAMEEN":"dadong","NAMECN":"大东","DISTRICTEN":"shenyang","DISTRICTCN":"沈阳","PROVEN":"liaoning","PROVCN":"辽宁","NATIONEN":"china","NATIONCN":"中国","level":3},"id":"309"},{"type":"Feature","geometry":{"type":"Point","coordinates":[123.4191,41.8179]},"properties":{"areaid":101070110,"NAMEEN":"huanggu","NAMECN":"皇姑","DISTRICTEN":"shenyang","DISTRICTCN":"沈阳","PROVEN":"liaoning","PROVCN":"辽宁","NATIONEN":"china","NATIONCN":"中国","level":3},"id":"310"},{"type":"Feature","geometry":{"type":"Point","coordinates":[123.371,41.8001]},"properties":{"areaid":101070111,"NAMEEN":"tiexi","NAMECN":"铁西","DISTRICTEN":"shenyang","DISTRICTCN":"沈阳","PROVEN":"liaoning","PROVCN":"辽宁","NATIONEN":"china","NATIONCN":"中国","level":3},"id":"311"},{"type":"Feature","geometry":{"type":"Point","coordinates":[123.3381,41.6625]},"properties":{"areaid":101070112,"NAMEEN":"sujiatun","NAMECN":"苏家屯","DISTRICTEN":"shenyang","DISTRICTCN":"沈阳","PROVEN":"liaoning","PROVCN":"辽宁","NATIONEN":"china","NATIONCN":"中国","level":3},"id":"312"},{"type":"Feature","geometry":{"type":"Point","coordinates":[123.5207,42.0508]},"properties":{"areaid":101070113,"NAMEEN":"shenbeixinqu","NAMECN":"沈北新区","DISTRICTEN":"shenyang","DISTRICTCN":"沈阳","PROVEN":"liaoning","PROVCN":"辽宁","NATIONEN":"china","NATIONCN":"中国","level":3},"id":"313"},{"type":"Feature","geometry":{"type":"Point","coordinates":[123.3022,41.7918]},"properties":{"areaid":101070114,"NAMEEN":"yuhong","NAMECN":"于洪","DISTRICTEN":"shenyang","DISTRICTCN":"沈阳","PROVEN":"liaoning","PROVCN":"辽宁","NATIONEN":"china","NATIONCN":"中国","level":3},"id":"314"},{"type":"Feature","geometry":{"type":"Point","coordinates":[123.4436,41.7124]},"properties":{"areaid":101070115,"NAMEEN":"dongling","NAMECN":"东陵","DISTRICTEN":"shenyang","DISTRICTCN":"沈阳","PROVEN":"liaoning","PROVCN":"辽宁","NATIONEN":"china","NATIONCN":"中国","level":3},"id":"315"},{"type":"Feature","geometry":{"type":"Point","coordinates":[121.61,38.9132]},"properties":{"areaid":101070201,"NAMEEN":"dalian","NAMECN":"大连","DISTRICTEN":"dalian","DISTRICTCN":"大连","PROVEN":"liaoning","PROVCN":"辽宁","NATIONEN":"china","NATIONCN":"中国","level":2},"id":"316"},{"type":"Feature","geometry":{"type":"Point","coordinates":[121.9743,39.6253]},"properties":{"areaid":101070202,"NAMEEN":"wafangdian","NAMECN":"瓦房店","DISTRICTEN":"dalian","DISTRICTCN":"大连","PROVEN":"liaoning","PROVCN":"辽宁","NATIONEN":"china","NATIONCN":"中国","level":3},"id":"317"},{"type":"Feature","geometry":{"type":"Point","coordinates":[121.7138,39.0994]},"properties":{"areaid":101070203,"NAMEEN":"jinzhou","NAMECN":"金州","DISTRICTEN":"dalian","DISTRICTCN":"大连","PROVEN":"liaoning","PROVCN":"辽宁","NATIONEN":"china","NATIONCN":"中国","level":3},"id":"318"},{"type":"Feature","geometry":{"type":"Point","coordinates":[121.9583,39.3934]},"properties":{"areaid":101070204,"NAMEEN":"pulandian","NAMECN":"普兰店","DISTRICTEN":"dalian","DISTRICTCN":"大连","PROVEN":"liaoning","PROVCN":"辽宁","NATIONEN":"china","NATIONCN":"中国","level":3},"id":"319"},{"type":"Feature","geometry":{"type":"Point","coordinates":[121.2568,38.8504]},"properties":{"areaid":101070205,"NAMEEN":"lvshun","NAMECN":"旅顺","DISTRICTEN":"dalian","DISTRICTCN":"大连","PROVEN":"liaoning","PROVCN":"辽宁","NATIONEN":"china","NATIONCN":"中国","level":3},"id":"320"},{"type":"Feature","geometry":{"type":"Point","coordinates":[122.5889,39.2745]},"properties":{"areaid":101070206,"NAMEEN":"changhai","NAMECN":"长海","DISTRICTEN":"dalian","DISTRICTCN":"大连","PROVEN":"liaoning","PROVCN":"辽宁","NATIONEN":"china","NATIONCN":"中国","level":3},"id":"321"},{"type":"Feature","geometry":{"type":"Point","coordinates":[122.9621,39.6797]},"properties":{"areaid":101070207,"NAMEEN":"zhuanghe","NAMECN":"庄河","DISTRICTEN":"dalian","DISTRICTCN":"大连","PROVEN":"liaoning","PROVCN":"辽宁","NATIONEN":"china","NATIONCN":"中国","level":3},"id":"322"},{"type":"Feature","geometry":{"type":"Point","coordinates":[121.6401,38.9183]},"properties":{"areaid":101070208,"NAMEEN":"zhongshan","NAMECN":"中山","DISTRICTEN":"dalian","DISTRICTCN":"大连","PROVEN":"liaoning","PROVCN":"辽宁","NATIONEN":"china","NATIONCN":"中国","level":3},"id":"323"},{"type":"Feature","geometry":{"type":"Point","coordinates":[121.6069,38.9136]},"properties":{"areaid":101070209,"NAMEEN":"xigang","NAMECN":"西岗","DISTRICTEN":"dalian","DISTRICTCN":"大连","PROVEN":"liaoning","PROVCN":"辽宁","NATIONEN":"china","NATIONCN":"中国","level":3},"id":"324"},{"type":"Feature","geometry":{"type":"Point","coordinates":[121.5893,38.9042]},"properties":{"areaid":101070210,"NAMEEN":"shahekou","NAMECN":"沙河口","DISTRICTEN":"dalian","DISTRICTCN":"大连","PROVEN":"liaoning","PROVCN":"辽宁","NATIONEN":"china","NATIONCN":"中国","level":3},"id":"325"},{"type":"Feature","geometry":{"type":"Point","coordinates":[121.5599,38.9491]},"properties":{"areaid":101070211,"NAMEEN":"ganjingzi","NAMECN":"甘井子","DISTRICTEN":"dalian","DISTRICTCN":"大连","PROVEN":"liaoning","PROVCN":"辽宁","NATIONEN":"china","NATIONCN":"中国","level":3},"id":"326"},{"type":"Feature","geometry":{"type":"Point","coordinates":[122.9895,41.1066]},"properties":{"areaid":101070301,"NAMEEN":"anshan","NAMECN":"鞍山","DISTRICTEN":"anshan","DISTRICTCN":"鞍山","PROVEN":"liaoning","PROVCN":"辽宁","NATIONEN":"china","NATIONCN":"中国","level":2},"id":"327"},{"type":"Feature","geometry":{"type":"Point","coordinates":[122.4242,41.3814]},"properties":{"areaid":101070302,"NAMEEN":"taian","NAMECN":"台安","DISTRICTEN":"anshan","DISTRICTCN":"鞍山","PROVEN":"liaoning","PROVCN":"辽宁","NATIONEN":"china","NATIONCN":"中国","level":3},"id":"328"},{"type":"Feature","geometry":{"type":"Point","coordinates":[123.2831,40.2786]},"properties":{"areaid":101070303,"NAMEEN":"xiuyan","NAMECN":"岫岩","DISTRICTEN":"anshan","DISTRICTCN":"鞍山","PROVEN":"liaoning","PROVCN":"辽宁","NATIONEN":"china","NATIONCN":"中国","level":3},"id":"329"},{"type":"Feature","geometry":{"type":"Point","coordinates":[122.7476,40.8523]},"properties":{"areaid":101070304,"NAMEEN":"haicheng","NAMECN":"海城","DISTRICTEN":"anshan","DISTRICTCN":"鞍山","PROVEN":"liaoning","PROVCN":"辽宁","NATIONEN":"china","NATIONCN":"中国","level":3},"id":"330"},{"type":"Feature","geometry":{"type":"Point","coordinates":[122.984,41.1024]},"properties":{"areaid":101070305,"NAMEEN":"tiedong","NAMECN":"铁东","DISTRICTEN":"anshan","DISTRICTCN":"鞍山","PROVEN":"liaoning","PROVCN":"辽宁","NATIONEN":"china","NATIONCN":"中国","level":3},"id":"331"},{"type":"Feature","geometry":{"type":"Point","coordinates":[122.964,41.1176]},"properties":{"areaid":101070306,"NAMEEN":"tiexi","NAMECN":"铁西","DISTRICTEN":"anshan","DISTRICTCN":"鞍山","PROVEN":"liaoning","PROVCN":"辽宁","NATIONEN":"china","NATIONCN":"中国","level":3},"id":"332"},{"type":"Feature","geometry":{"type":"Point","coordinates":[123.0242,41.1485]},"properties":{"areaid":101070307,"NAMEEN":"lishan","NAMECN":"立山","DISTRICTEN":"anshan","DISTRICTCN":"鞍山","PROVEN":"liaoning","PROVCN":"辽宁","NATIONEN":"china","NATIONCN":"中国","level":3},"id":"333"},{"type":"Feature","geometry":{"type":"Point","coordinates":[122.9056,41.0094]},"properties":{"areaid":101070308,"NAMEEN":"qianshan","NAMECN":"千山","DISTRICTEN":"anshan","DISTRICTCN":"鞍山","PROVEN":"liaoning","PROVCN":"辽宁","NATIONEN":"china","NATIONCN":"中国","level":3},"id":"334"},{"type":"Feature","geometry":{"type":"Point","coordinates":[124.0278,41.7142]},"properties":{"areaid":101070401,"NAMEEN":"fushun","NAMECN":"抚顺","DISTRICTEN":"fushun","DISTRICTCN":"抚顺","PROVEN":"liaoning","PROVCN":"辽宁","NATIONEN":"china","NATIONCN":"中国","level":3},"id":"335"},{"type":"Feature","geometry":{"type":"Point","coordinates":[125.0349,41.7296]},"properties":{"areaid":101070402,"NAMEEN":"xinbin","NAMECN":"新宾","DISTRICTEN":"fushun","DISTRICTCN":"抚顺","PROVEN":"liaoning","PROVCN":"辽宁","NATIONEN":"china","NATIONCN":"中国","level":3},"id":"336"},{"type":"Feature","geometry":{"type":"Point","coordinates":[124.9197,42.1039]},"properties":{"areaid":101070403,"NAMEEN":"qingyuan","NAMECN":"清原","DISTRICTEN":"fushun","DISTRICTCN":"抚顺","PROVEN":"liaoning","PROVCN":"辽宁","NATIONEN":"china","NATIONCN":"中国","level":3},"id":"337"},{"type":"Feature","geometry":{"type":"Point","coordinates":[123.9075,41.8599]},"properties":{"areaid":101070405,"NAMEEN":"xinfu","NAMECN":"新抚","DISTRICTEN":"fushun","DISTRICTCN":"抚顺","PROVEN":"liaoning","PROVCN":"辽宁","NATIONEN":"china","NATIONCN":"中国","level":3},"id":"338"},{"type":"Feature","geometry":{"type":"Point","coordinates":[124.0341,41.8493]},"properties":{"areaid":101070406,"NAMEEN":"dongzhou","NAMECN":"东洲","DISTRICTEN":"fushun","DISTRICTCN":"抚顺","PROVEN":"liaoning","PROVCN":"辽宁","NATIONEN":"china","NATIONCN":"中国","level":3},"id":"339"},{"type":"Feature","geometry":{"type":"Point","coordinates":[123.7881,41.8467]},"properties":{"areaid":101070407,"NAMEEN":"wanghua","NAMECN":"望花","DISTRICTEN":"fushun","DISTRICTCN":"抚顺","PROVEN":"liaoning","PROVCN":"辽宁","NATIONEN":"china","NATIONCN":"中国","level":3},"id":"340"},{"type":"Feature","geometry":{"type":"Point","coordinates":[123.94,41.8819]},"properties":{"areaid":101070408,"NAMEEN":"shuncheng","NAMECN":"顺城","DISTRICTEN":"fushun","DISTRICTCN":"抚顺","PROVEN":"liaoning","PROVCN":"辽宁","NATIONEN":"china","NATIONCN":"中国","level":3},"id":"341"},{"type":"Feature","geometry":{"type":"Point","coordinates":[124.1214,41.2984]},"properties":{"areaid":101070501,"NAMEEN":"benxi","NAMECN":"本溪","DISTRICTEN":"benxi","DISTRICTCN":"本溪","PROVEN":"liaoning","PROVCN":"辽宁","NATIONEN":"china","NATIONCN":"中国","level":3},"id":"342"},{"type":"Feature","geometry":{"type":"Point","coordinates":[124.1214,41.2984]},"properties":{"areaid":101070502,"NAMEEN":"benxixian","NAMECN":"本溪县","DISTRICTEN":"benxi","DISTRICTCN":"本溪","PROVEN":"liaoning","PROVCN":"辽宁","NATIONEN":"china","NATIONCN":"中国","level":3},"id":"343"},{"type":"Feature","geometry":{"type":"Point","coordinates":[123.7632,41.2976]},"properties":{"areaid":101070503,"NAMEEN":"pingshan","NAMECN":"平山","DISTRICTEN":"benxi","DISTRICTCN":"本溪","PROVEN":"liaoning","PROVCN":"辽宁","NATIONEN":"china","NATIONCN":"中国","level":3},"id":"344"},{"type":"Feature","geometry":{"type":"Point","coordinates":[125.3545,41.2658]},"properties":{"areaid":101070504,"NAMEEN":"huanren","NAMECN":"桓仁","DISTRICTEN":"benxi","DISTRICTCN":"本溪","PROVEN":"liaoning","PROVCN":"辽宁","NATIONEN":"china","NATIONCN":"中国","level":3},"id":"345"},{"type":"Feature","geometry":{"type":"Point","coordinates":[123.7615,41.327]},"properties":{"areaid":101070505,"NAMEEN":"xihu","NAMECN":"溪湖","DISTRICTEN":"benxi","DISTRICTCN":"本溪","PROVEN":"liaoning","PROVCN":"辽宁","NATIONEN":"china","NATIONCN":"中国","level":3},"id":"346"},{"type":"Feature","geometry":{"type":"Point","coordinates":[123.8111,41.3067]},"properties":{"areaid":101070506,"NAMEEN":"mingshan","NAMECN":"明山","DISTRICTEN":"benxi","DISTRICTCN":"本溪","PROVEN":"liaoning","PROVCN":"辽宁","NATIONEN":"china","NATIONCN":"中国","level":3},"id":"347"},{"type":"Feature","geometry":{"type":"Point","coordinates":[123.7417,41.0953]},"properties":{"areaid":101070507,"NAMEEN":"nanfen","NAMECN":"南芬","DISTRICTEN":"benxi","DISTRICTCN":"本溪","PROVEN":"liaoning","PROVCN":"辽宁","NATIONEN":"china","NATIONCN":"中国","level":3},"id":"348"},{"type":"Feature","geometry":{"type":"Point","coordinates":[124.3791,40.1254]},"properties":{"areaid":101070601,"NAMEEN":"dandong","NAMECN":"丹东","DISTRICTEN":"dandong","DISTRICTCN":"丹东","PROVEN":"liaoning","PROVCN":"辽宁","NATIONEN":"china","NATIONCN":"中国","level":2},"id":"349"},{"type":"Feature","geometry":{"type":"Point","coordinates":[124.0608,40.4514]},"properties":{"areaid":101070602,"NAMEEN":"fengcheng","NAMECN":"凤城","DISTRICTEN":"dandong","DISTRICTCN":"丹东","PROVEN":"liaoning","PROVCN":"辽宁","NATIONEN":"china","NATIONCN":"中国","level":3},"id":"350"},{"type":"Feature","geometry":{"type":"Point","coordinates":[124.7768,40.7303]},"properties":{"areaid":101070603,"NAMEEN":"kuandian","NAMECN":"宽甸","DISTRICTEN":"dandong","DISTRICTCN":"丹东","PROVEN":"liaoning","PROVCN":"辽宁","NATIONEN":"china","NATIONCN":"中国","level":3},"id":"351"},{"type":"Feature","geometry":{"type":"Point","coordinates":[124.1473,39.8604]},"properties":{"areaid":101070604,"NAMEEN":"donggang","NAMECN":"东港","DISTRICTEN":"dandong","DISTRICTCN":"丹东","PROVEN":"liaoning","PROVCN":"辽宁","NATIONEN":"china","NATIONCN":"中国","level":3},"id":"352"},{"type":"Feature","geometry":{"type":"Point","coordinates":[124.3898,40.1352]},"properties":{"areaid":101070605,"NAMEEN":"yuanbao","NAMECN":"元宝","DISTRICTEN":"dandong","DISTRICTCN":"丹东","PROVEN":"liaoning","PROVCN":"辽宁","NATIONEN":"china","NATIONCN":"中国","level":3},"id":"353"},{"type":"Feature","geometry":{"type":"Point","coordinates":[124.3545,40.1034]},"properties":{"areaid":101070606,"NAMEEN":"zhenxing","NAMECN":"振兴","DISTRICTEN":"dandong","DISTRICTCN":"丹东","PROVEN":"liaoning","PROVCN":"辽宁","NATIONEN":"china","NATIONCN":"中国","level":3},"id":"354"},{"type":"Feature","geometry":{"type":"Point","coordinates":[124.4223,40.1566]},"properties":{"areaid":101070607,"NAMEEN":"zhenan","NAMECN":"振安","DISTRICTEN":"dandong","DISTRICTCN":"丹东","PROVEN":"liaoning","PROVCN":"辽宁","NATIONEN":"china","NATIONCN":"中国","level":3},"id":"355"},{"type":"Feature","geometry":{"type":"Point","coordinates":[121.1335,41.1226]},"properties":{"areaid":101070701,"NAMEEN":"jinzhou","NAMECN":"锦州","DISTRICTEN":"jinzhou","DISTRICTCN":"锦州","PROVEN":"liaoning","PROVCN":"辽宁","NATIONEN":"china","NATIONCN":"中国","level":2},"id":"356"},{"type":"Feature","geometry":{"type":"Point","coordinates":[121.3514,41.1717]},"properties":{"areaid":101070702,"NAMEEN":"linghai","NAMECN":"凌海","DISTRICTEN":"jinzhou","DISTRICTCN":"锦州","PROVEN":"liaoning","PROVCN":"辽宁","NATIONEN":"china","NATIONCN":"中国","level":3},"id":"357"},{"type":"Feature","geometry":{"type":"Point","coordinates":[121.1217,41.1152]},